DATE,ROUTE NO,SHOP NO,ACCOUNT,SHOP CODE,SHOP NAME,ODD,PCS,PCS(31),CRATES,SERVICE TIME,LATITUDE,LONGITUDE,ADDRESS
30-May,1,1,KA,109834,7-11 ST2654 TUSCANY,0,112,55,4,,14.537802,121.052076,"Fort Bonifacio, Taguig, Metro Manila, Philippines"
30-May,1,2,KA,100556,7-11 WOODRIDGE,15,63,47,3,,14.535244,121.052188,"McKinley Park Rd, Taguig, 1630 Metro Manila, Philippines"
30-May,1,3,KA,107130,7-11 ST2110 GRAND CANAL MALL,23,110,82,4,,14.534455,121.052451,"1030 Campus Avenue, Taguig, 1630 Metro Manila, Philippines"
30-May,1,4,KA,100585,7-11 MCKINLEY 1820,23,101,75,4,,14.534829,121.049483,"McKinley Park Rd, Taguig, 1630 Metro Manila, Philippines"
30-May,1,5,KA,100501,7-11 ST365 MCKINLEY HILL,23,61,45,3,,14.535303,121.04734,"8 Upper McKinley Rd, Taguig, 1630 Metro Manila, Philippines"
30-May,1,6,KA,108469,7-11 ST2387 ONE WEST CAMPUS,23,115,86,4,,14.536013,121.045148,"Fort Bonifacio, Taguig, Metro Manila, Philippines"
30-May,1,7,KA,100507,7-11 ST419 GATE 3 TAGUIG,23,165,80,5,,14.52539,121.027261,"Western Bicutan, Taguig, Metro Manila, Philippines"
30-May,1,8,KA,100533,711 ECO PLAZA,15,121,59,4,,14.533478,121.022827,"2285 Chino Roces Ave, Makati, 1200 Metro Manila, Philippines"
30-May,1,9,KA,100449,7-11 ST204 PRISCILLA,15,63,47,3,,14.534687,121.022069,"RCS Prime, 2397 Chino Roces Ave, Magallanes, Makati, 1232 Metro Manila, Philippines"
30-May,1,10,KA,101251,7-11 NEW PORT,23,79,38,3,,14.524044,121.012566,"Newport Blvd, Pasay, Metro Manila, Philippines"
30-May,1,11,KA,101280,7-11 ST834 REMINGTON HOTEL,15,89,66,4,,14.518083,121.019684,"Pasay, Metro Manila, Philippines"
30-May,1,12,KA,101284,7-11 ST909 PLAZA 66,23,54,24,2,,14.52438,121.013299,"Newport Carabao Statue, Pasay, Metro Manila, Philippines"
30-May,1,13,KA,101237,7-11 ST375 VILLAMOR,14,177,86,4,,14.525422,121.011714,"Pasay, Metro Manila, Philippines"
30-May,1,14,KA,112434,7-11 ST2763 VILLAMOR 2,15,144,70,4,,14.527145,121.009955,"Pasay, Metro Manila, Philippines"
30-May,1,27,KA,101216,7-11 ST216 BACLARAN 2,15,168,81,5,,14.530393,120.996899,"Baclaran, Parañaque, Metro Manila, Philippines"
30-May,1,31,KA,101229,7-11 ST352 BACLARAN 4,15,131,64,6,,14.529046,120.993833,"Baclaran, Parañaque, Metro Manila, Philippines"
30-May,1,32,KA,101217,7-11 ST221 BACLARAN 3,15,111,54,3,,14.53301,120.993492,"Baclaran, Parañaque, Metro Manila, Philippines"
30-May,1,33,KA,101325,7-11 REPHIL PASAY ST1465,15,81,39,3,,14.537504,120.996304,"75, Pasay, Metro Manila, Philippines"
30-May,1,34,KA,113121,7-11 GAM PARKLANE,15,172,83,4,,14.537371,120.998986,"230 C-4, Pasay, Metro Manila, Philippines"
30-May,1,35,KA,101222,7-11 ST297 DFA,15,95,46,3,,14.545587,120.991643,"Antonio Arnaiz Avenue, Pasay, Metro Manila, Philippines"
30-May,1,36,KA,101208,7-11 ST3 LIBERTAD,15,160,78,5,,14.546222,120.993917,"2360 F.B. Harrison St, Pasay, Metro Manila, Philippines"
30-May,1,37,KA,101293,7-11 ST1096 LIBERTAD AURORA,15,164,80,5,,14.548325,121.003905,"Pasay, Metro Manila, Philippines"
30-May,1,38,KA,108470,7-11 ST2367 BURGOS 2,15,60,29,3,,14.549728,121.000434,"60, Pasay, Metro Manila, Philippines"
30-May,1,39,KA,101210,7-11 P. BURGOS,15,226,109,5,,14.548097,121.000588,"59, Pasay, Metro Manila, Philippines"
30-May,2,1,KA,109880,7-11 ST2681 EDSA ORTIGAS,15,163,95,5,,14.592156,121.057795,"Wack-Wack Greenhills, Mandaluyong, Metro Manila, Philippines"
30-May,2,2,KA,101204,7-11 ST90 BANGKAL MAKATI,18,64,46,3,,14.539591,121.012382,"Bangkal, Makati, Metro Manila, Philippines"
30-May,2,3,KA,101332,7-11 ST1646 CPI TAFT,22,71,34,3,,14.540592,121.00045,"97, Pasay, Metro Manila, Philippines"
30-May,2,4,KA,112436,7-11 ST2687 IMET,15,64,31,3,,14.540787,120.991533,"Barangay 76, Pasay, Metro Manila, Philippines"
30-May,2,5,KA,101344,7-11 ST1613 FERRY TERMINAL,15,163,79,5,,14.541547,120.980188,"Esplanade Seaside Terminal, Seaside Blvd, Pasay, Metro Manila, Philippines"
30-May,2,6,KA,101282,7-11 ST749 2 E-COM,15,68,50,4,,14.539638,120.981022,"Ocean Dr, Pasay, Metro Manila, Philippines"
30-May,2,7,KA,101238,7-11 ST384 ONE ECOM,23,109,81,4,,14.538506,120.981711,"Harbor Drive Side Entrance to One E-com, Harbor Dr, Pasay, Metro Manila, Philippines"
30-May,2,8,KA,113051,7-11 CONVERGYS MOA,23,132,64,3,,14.539502,120.982298,"Harbor Dr, Pasay, Metro Manila, Philippines"
30-May,2,9,KA,109201,7-11 ST2487 OWWA PASAY,15,59,29,3,,14.55185,120.992296,"11, Pasay, Metro Manila, Philippines"
30-May,2,10,KA,101205,7-11 ST17 BUENDIA,15,59,29,3,,14.553985,120.997911,"49, Pasay, Metro Manila, Philippines"
30-May,2,11,KA,113321,7-11 ST2706 SEASCAPE,15,151,73,8,,14.55134,120.981472,"1, Pasay, Metro Manila, Philippines"
30-May,2,12,KA,101347,7-11 STAR CITY ST1840,15,88,43,3,,14.556922,120.985547,"Vicente Sotto St, Pasay, Metro Manila, Philippines"
30-May,2,13,KA,113369,7-11 ST2889 ROXAS BLVD. - VITO CRUZ,15,97,47,3,,14.55861,120.987987,"Hotel Jen, Pasay, Metro Manila, Philippines"
30-May,2,13,KA,101207,7-11 FB HARRISON,15,76,37,3,,14.560043,120.989714,"Brgy. 719, Malate, Manila, Metro Manila, Philippines"
30-May,2,14,KA,101230,7-11 ST355 VITO CRUZ,15,145,70,4,,14.561142,120.993281,"Brgy. 719, Malate, Manila, Metro Manila, Philippines"
30-May,2,15,KA,101239,7-11 ST404 PACIFIC REGENCY,15,134,65,4,,14.561409,120.994258,"760 Saygan, Malate, Maynila, 1004 Kalakhang Maynila, Philippines"
30-May,2,16,KA,101224,7-11 ST322 ST. SCHOLASTICA,15,61,30,3,,14.563013,120.996219,"2647 Dominga Street, Malate, Manila, 1004 Metro Manila, Philippines"
30-May,2,17,KA,101260,7-11 ANGELO KING,15,94,46,3,,14.567055,120.997831,"Brgy. 746, San Andres, Manila, Metro Manila, Philippines"
30-May,2,18,KA,109870,7-11 ST2624 HEROES HOTEL MANILA,15,50,24,2,,14.569094,121.001049,"Brgy. 749, San Andres, Manila, Metro Manila, Philippines"
30-May,2,19,KA,101299,7-11 ST1043 NEW YORK RESIDENCE,15,110,53,4,,14.564922,120.995271,"2457-C Leon Guinto St., Malate, Manila, Leon Guinto St, Malate, Manila, 1004 Metro Manila, Philippines"
30-May,2,20,KA,106643,7-11 ST2077 D-UNIVERSITY,15,46,23,2,,14.565393,120.994687,"2431 Leon Guinto St, Malate, Manila, 1004 Metro Manila, Philippines"
30-May,2,21,KA,101272,7-11 MANILA RESIDENCES,15,45,22,2,,14.566473,120.993551,"Brgy. 725, Malate, Manila, 1004 Metro Manila, Philippines"
30-May,2,22,KA,101355,7-11 ST1789 MANILA RESIDENCE 2,15,48,23,2,,14.566736,120.99344,"Brgy. 725, Malate, Manila, 1004 Metro Manila, Philippines"
30-May,2,23,KA,101268,7-11 ONE ARCHERS PLACE,15,53,26,2,,14.566752,120.993024,"2311 Castro, Malate, Manila, 1004 Metro Manila, Philippines"
30-May,2,24,KA,101350,7-11 ST1975 LA SALLE 4,15,65,32,2,,14.566846,120.992173,"2305 Fidel A.Reyes, Malate, Manila, 1004 Metro Manila, Philippines"
30-May,2,25,KA,101346,7-11 ST1726 LA SALLE 3,15,55,27,2,,14.563135,120.994631,"2507 Taft Ave, Malate, Manila, 1004 Metro Manila, Philippines"
30-May,2,26,KA,101320,7-11 MANILA SANITARIUM,15,104,51,4,,14.555715,120.996264,"36, Pasay, Metro Manila, Philippines"
30-May,2,27,KA,100576,7-11 MAKATI EXECUTIVE 3,15,42,20,2,,14.557942,121.008589,"2116 Sen Gil Puyat, Makati, 1230 Metro Manila, Philippines"
30-May,2,28,KA,100815,7-11 BUENDIA #6 ST1415,15,46,22,2,,14.559897,121.012224,"Chino Roces Avenue, Makati, Metro Manila, Philippines"
30-May,2,29,KA,109155,7-11 ST2567 P OCAMPO,15,49,24,2,,14.566539,121.01374,"Makati BLISS, Davila, Makati, Metro Manila, Philippines"
30-May,2,30,KA,100554,7-11 KINGSWOOD,15,38,19,3,,14.566859,121.012437,"La Paz, Makati, Metro Manila, Philippines"
30-May,2,31,KA,113006,7-11 SAN ANTONIO VILLAGE 2 ST2866,15,97,47,3,,14.564944,121.008722,"San Antonio, Makati, Metro Manila, Philippines"
30-May,2,32,KA,100422,7-11 ST155 ONYX,15,228,111,5,,14.573669,121.003605,"Brgy. 804, San Andres, Manila, Metro Manila, Philippines"
30-May,2,33,KA,106454,7-11 ST1836 A. FRANCISCO,15,99,45,4,,14.576807,121.00654,"Brgy. 791, San Andres, Manila, Metro Manila, Philippines"
30-May,2,34,KA,113403,7-11 ST2861 PALM BEACH,14,196,70,5,,14.539829,120.989835,Unit 1-2 Palm Beach Villas  Metrobank Ave.  Parañaque City
30-May,3,1,KA,100648,7-11 CULIAT,11,207,67,5,,14.667883,121.056277,"Culiat, Quezon City, Metro Manila, Philippines"
30-May,3,8,KA,100713,7-11 SANGANDAAN,10,97,47,3,,14.680011,121.018218,"MMMM Building, 373 Tandang Sora Ave, Novaliches, Quezon City, Metro Manila, Philippines"
30-May,3,9,KA,100631,7-11 ST779 STA QUITERIA,15,101,49,4,,14.68116,121.009915,"Caloocan, Metro Manila, Philippines"
30-May,3,10,KA,100744,7-11 ST1292 UGONG VALENZUELA,15,188,91,5,,14.68799,121.001344,"SQTODA - Tulay Terminal, Gen. T. de Leon, Valenzuela, Metro Manila, Philippines"
30-May,3,11,KA,100515,7-11 ST462 GEN T DE LEON,15,146,71,4,,14.686499,120.994773,"Gen. T. De Leon, Valenzuela, Metro Manila, Philippines"
30-May,3,12,KA,100764,7-11 LOREX AVE. ST1466,15,130,63,4,,14.684352,120.987291,"Gen. T. De Leon, Valenzuela, Metro Manila, Philippines"
30-May,3,13,KA,100797,7-11 ST1657 FATIMA ANNEX,15,90,44,3,,14.681479,120.980021,"2 Fatima Ave, Valenzuela, Metro Manila, Philippines"
30-May,3,14,KA,100434,7-11 ST106 TAMARAW HILLS,15,218,106,6,,14.678644,120.980016,"Marulas, Valenzuela, Metro Manila, Philippines"
30-May,3,15,KA,100763,7-11 FATIMA 2 ST1446,15,120,59,4,,14.676978,120.98066,"Marulas, Valenzuela, Metro Manila, Philippines"
30-May,3,16,KA,109200,7-11 ST2351 SAN MIGUEL HEIGTHS,15,139,67,4,,14.676481,120.990524,"Marulas, Valenzuela, Metro Manila, Philippines"
30-May,3,17,KA,107046,7-11 ST2073 MARULAS 2,15,166,80,4,,14.675061,120.984143,"Marulas, Valenzuela, Metro Manila, Philippines"
30-May,3,18,KA,100432,7-11 ST41 MARULAS,15,173,84,5,,14.673666,120.981945,"Marulas, Valenzuela, Metro Manila, Philippines"
30-May,3,19,KA,100835,7-11 ST1872 POTRERO MALABON,15,161,78,4,,14.667655,120.982193,"Potrero, Malabon, Metro Manila, Philippines"
30-May,3,20,KA,103672,7-11 ST2054 MONUMENTO,15,110,54,4,,14.658521,120.983872,"Brgy. 78, Caloocan, Metro Manila, Philippines"
30-May,3,21,KA,100849,7-11 ST1838 CPI TUGATOG MALABON,15,147,71,4,,14.667732,120.965714,"RLN Centre, M.H. del Pilar corner, Gov. Pascual Ave, Catmon, Malabon, Kalakhang Maynila, Philippines"
30-May,3,22,KA,100776,7-11 SANTOLAN MALABON ST1360,15,130,63,4,,14.686664,120.958051,"107 Rodriguez St, City of Malabon, 1478 Metro Manila, Philippines"
30-May,3,23,KA,112442,"7-11 ST2417 OBANDO, BULACAN",15,175,85,5,,14.709497,120.937168,"Pag-asa, Obando, Bulacan, Philippines"
30-May,3,24,KA,107400,7-11 ST2304 LA COSOLATION VALENUELA,15,94,46,3,,14.687682,120.964688,"Malinta, Valenzuela, Metro Manila, Philippines"
30-May,3,25,KA,100626,7-11 ST817 MALINTA 3,15,75,37,3,,14.692431,120.964184,"Gov Santiago, Valenzuela, Metro Manila, Philippines"
30-May,3,26,KA,100480,7-11 ST289 KARUHATAN,15,96,47,3,,14.689997,120.974098,"A Pablo Street, Valenzuela, Metro Manila, Philippines"
30-May,3,27,KA,100559,7-11 MALINTA 2,15,128,62,4,,14.694649,120.970082,"Karuhatan, Valenzuela, Metro Manila, Philippines"
30-May,3,28,KA,107050,7-11 ST2305 MAYSAN ROAD,15,134,65,4,,14.699218,120.978554,"Maysan, Valenzuela, Metro Manila, Philippines"
30-May,3,29,KA,112972,"7-11 ST2173 PARADA, VALENZUELA",15,281,136,6,,14.695947,120.98807,"Maysan, Valenzuela, Metro Manila, Philippines"
30-May,3,30,KA,100612,7-11 ST758 DALANDANAN,15,112,55,4,,14.708562,120.959978,"T Santiago, Valenzuela, Metro Manila, Philippines"
30-May,3,31,KA,107092,7-11 ST2066 LINGUNAN,15,133,65,4,,14.719643,120.975954,"Lingunan, Valenzuela, Metro Manila, Philippines"
30-May,3,32,KA,100558,7-11 MALANDAY 2,15,153,74,4,,14.717555,120.957005,"Malanday, Valenzuela, Philippines"
30-May,3,33,KA,100868,7-11 ST2024 VIENTE REALES,15,99,48,3,,14.722344,120.96574,"Malanday, Valenzuela, Philippines"
30-May,3,34,KA,100522,7-11 MALINTA EXIT,15,101,49,4,,14.70786,120.992061,"Maysan Road, Valenzuela, Metro Manila, Philippines"
30-May,3,35,KA,103910,7-11 ST1921 CANUMAY EAST,15,67,33,3,,14.71014,120.992304,"Canumay East, Valenzuela, Metro Manila, Philippines"
30-May,3,36,KA,100802,7-11 ST1546 BAGBAGUIN,15,132,64,4,,14.714202,120.999913,"Bagbaguin, Valenzuela, Metro Manila, Philippines"
30-May,3,37,KA,100733,7-11 ST1192 RED SQUARE,15,108,52,3,,14.719023,121.004886,"Bagbaguin Public Market Bus Stop, General Luis, Caloocan, Metro Manila, Philippines"
30-May,3,38,KA,107232,7-11 ST2163 MAPULANG LUPA,15,131,64,4,,14.704946,121.008042,"Mapulang Lupa, Valenzuela, Metro Manila, Philippines"
30-May,4,1,KA,100698,7-11 ST1244 KATIPUNAN 2,15,121,59,3,,14.632602,121.073836,"Loyola Heights, Quezon City, Metro Manila, Philippines"
30-May,4,2,KA,100754,7-11 ST1611 BLUE RESIDENCES,15,78,38,3,,14.632811,121.07458,"Loyola Heights, Quezon City, Metro Manila, Philippines"
30-May,4,3,KA,100716,7-11 ST1245 KATIPUNAN 3,15,90,70,4,,14.640566,121.073939,"25 F dela Rosa, Project 4, Quezon City, 1800 Metro Manila, Philippines"
30-May,4,4,KA,100479,7-11 ST284 BURGUNDY,24,58,28,3,,14.637944,121.074104,"307 Katipunan Ave, Quezon City, 1108 Metro Manila, Philippines"
30-May,4,5,KA,100634,7-11 ST896 KATIPUNAN 1,15,42,33,2,,14.636357,121.073024,"80 Rosa Alvero, Lungsod Quezon, Kalakhang Maynila, Philippines"
30-May,4,6,KA,100419,7-11 ST108 CHICO STREET,24,96,71,4,,14.632493,121.059945,"Quirino 2-A, Project 2, Quezon City, Metro Manila, Philippines"
30-May,4,7,KA,100739,7-11 UNIOIL KALAYAAN,23,81,40,3,,14.64197,121.054943,"Teachers Village West, Diliman, Quezon City, Metro Manila, Philippines"
30-May,4,8,KA,100624,7-11 ST874 NKTI,15,181,134,6,,14.64625,121.04777,"East Ave, Diliman, Quezon City, Metro Manila, Philippines"
30-May,4,9,KA,100525,7-11 PHILIPPINE HEART CENTER,23,181,134,6,,14.644292,121.04844,"Central, Diliman, Quezon City, Metro Manila, Philippines"
30-May,4,10,KA,100445,7-11 ST198 MATALINO,23,66,32,2,,14.644603,121.049933,"Central, Diliman, Quezon City, Metro Manila, Philippines"
30-May,4,11,KA,112968,7-11 ST2771 SUNTRUST CAPITOL,15,102,49,3,,14.64499,121.050496,"19 Matalino St, Diliman, Quezon City, Metro Manila, Philippines"
30-May,4,12,KA,106647,7-11 ST2035 V. LUNA,15,171,83,4,,14.636675,121.052654,"Pinyahan, Diliman, Quezon City, Metro Manila, Philippines"
30-May,4,13,KA,100633,7-11 LUNG CENTER,15,88,65,4,,14.647655,121.045696,"Pinyahan, Diliman, Quezon City, Metro Manila, Philippines"
30-May,4,14,KA,100504,7-11 ST388 BAGO BANTAY,23,94,46,3,,14.659832,121.026214,"Ramon Magsaysay, Bago Bantay, Quezon City, Metro Manila, Philippines"
30-May,4,15,KA,112567,7-11 ST2345 PANORAMA TECHNO CENTER,15,91,44,3,,14.656996,121.022329,"VXI Munoz, U-Turn Slot, Bago Bantay, Quezon City, Metro Manila, Philippines"
30-May,4,16,KA,100560,7-11 BANSALANGIN,15,49,24,2,,14.655889,121.023854,"80 Dangay Residences, Dangay, Project 7, Quezon City, Metro Manila, Philippines"
30-May,4,17,KA,100440,7-11 ST10 MUNOZ,15,69,34,3,,14.65703,121.01934,"Katipunan, Quezon City, Metro Manila, Philippines"
30-May,4,18,KA,100787,7-11 ST1620 METRO OIL ROOSEVELT,15,153,74,4,,14.650788,121.017868,"San Antonio, Quezon City, Metro Manila, Philippines"
30-May,4,19,KA,100673,7-11 ST1108 ROOSEVELT,15,62,30,2,,14.646533,121.017304,"Del Monte, San Francisco del Monte, Quezon City, Metro Manila, Philippines"
30-May,4,20,KA,100821,7-11 ST1617 UNIOIL WEST AVE,15,55,27,2,,14.645087,121.027345,"Paltok, Quezon City, Metro Manila, Philippines"
30-May,4,21,KA,100437,7-11 WEST AVENUE,15,169,82,5,,14.638388,121.026034,"West Mansions Condominium, 3 Zamboanga, Quezon City, Metro Manila, Philippines"
30-May,4,22,KA,108643,7-11 ST2457 ANGELICUM COLLEGE,15,136,66,4,,14.627545,121.010563,"Santo Domingo, Quezon City, Metro Manila, Philippines"
30-May,4,23,KA,100495,7-11 ST315 BANAUE,15,137,67,4,,14.627624,121.00427,"Santo Domingo, Quezon City, Metro Manila, Philippines"
30-May,4,24,KA,103670,7-11 ST1844 CITIC TOWER,15,45,22,2,,14.631449,121.002495,"88 Banawe St, Santa Mesa Heights, Quezon City, Metro Manila, Philippines"
30-May,4,25,KA,100828,7-11 ST1972 BANAWE 3,15,109,53,4,,14.632771,121.00173,"Sienna, Quezon City, Metro Manila, Philippines"
30-May,4,26,KA,100537,7-11 RETIRO 2,15,84,41,3,,14.630259,120.996181,"Maharlika, Santa Mesa Heights, Quezon City, Metro Manila, Philippines"
30-May,4,27,KA,100565,7-11 SIENNA DEL MONTE,15,111,54,4,,14.639081,121.005752,"555 Del Monte Ave, Quezon City, 1115 Metro Manila, Philippines"
30-May,4,28,KA,106359,7-11 ST2191 MAUBAN QUEZON CITY,15,153,74,4,,14.640157,120.992067,"San Jose, La Loma, Quezon City, Metro Manila, Philippines"
30-May,4,29,KA,100531,7-11 12TH AVENUE,15,33,16,2,,14.654668,120.983643,"Monumento, Grace Park West, Caloocan, Metro Manila, Philippines"
30-May,4,30,KA,100699,7-11 ST1235 11TH AVENUE,15,99,48,3,,14.653015,120.984835,"90, East Grace Park, Caloocan, Metro Manila, Philippines"
30-May,4,31,KA,100682,7-11 ST1145 CALOOCAN HS,15,79,38,3,,14.651788,120.979991,"Grace Park West, Caloocan, Metro Manila, Philippines"
30-May,4,32,KA,108617,7-11 MAYPAJO 2   ST2280,15,98,48,3,,14.640122,120.974044,"Maypajo, Caloocan, Metro Manila, Philippines"
30-May,4,33,KA,100416,7-11 MAYPAJO,15,181,88,5,,14.63795,120.975524,"30, Maypajo, Caloocan, Metro Manila, Philippines"
30-May,4,34,KA,100579,7-11 4TH AVENUE,15,82,40,3,,14.643306,120.980016,"51, Grace Park West, Caloocan, Metro Manila, Philippines"
30-May,4,35,KA,108709,7-11 ST2450 2ND AVENUE,15,129,63,4,,14.640462,120.983655,"120, Metro Manila, Philippines"
30-May,4,36,KA,100793,7-11 5TH AVE. ST1540,15,89,44,3,,14.643342,120.983728,"204 Rizal Ave Ext, Grace Park, Caloocan, 1400 Metro Manila, Philippines"
30-May,4,37,KA,100846,7-11 ST1948 6TH AVENUE,15,75,37,3,,14.645981,120.98421,"179 N Carpio St, East Grace Park, Caloocan, Metro Manila, Philippines"
30-May,4,38,KA,108180,7-11 ST2213 MARIA CLARA,15,90,44,3,,14.647264,120.985097,"109, East Grace Park, Caloocan, Metro Manila, Philippines"
30-May,4,39,KA,113424,7-11  NEW CALOOCAN CITY HALL,15,197,70,5,,14.6486361,120.9908381,"Caloocan Commercial Complex or C-Cube, 8th Ave. cor 8th St., Caloocan City"
30-May,5,1,KA,109337,7-11 ST2348 GREENWOODS 2,11,111,54,4,,14.561376,121.099904,"San Andres, Cainta, Rizal, Philippines"
30-May,5,2,KA,100775,7-11 GREEN WOODS ST1411,15,109,81,4,,14.562469,121.098785,"San Andres, Cainta, Rizal, Philippines"
30-May,5,3,KA,100679,7-11 ST1200 SANDOVAL AVE.,23,98,48,3,,14.556938,121.097302,"Pinagbuhatan, Pasig, Metro Manila, Philippines"
30-May,5,4,KA,109788,7-11 ST2235 ILUGIN PASIG,15,133,65,4,,14.552471,121.09819,"Pinagbuhatan, Pasig, Metro Manila, Philippines"
30-May,5,5,KA,106090,7-11 ST1985 ISLA HOMES,15,140,68,4,,14.550948,121.100271,"Pinagbuhatan, Pasig, Metro Manila, Philippines"
30-May,5,6,KA,100777,7-11 TIPAS ST1503,15,199,97,5,,14.541053,121.081048,"Ligid-Tipas, Taguig, Metro Manila, Philippines"
30-May,5,7,KA,100807,7-11 ST1651 EAST MANSION,15,68,33,3,,14.550856,121.075902,"Pateros, Metro Manila, Philippines"
30-May,5,11,KA,100840,7-11 ST1685 USUSAN,15,154,75,4,,14.535157,121.067516,"Ususan, Taguig, Metro Manila, Philippines"
30-May,5,12,KA,107129,7-11 ST2256 USUAN 2,15,100,48,3,,14.531794,121.069296,"Ususan, Taguig, Metro Manila, Philippines"
30-May,5,13,KA,113009,7-11 STA. ANA TAGUIG ST2751,15,198,96,5,,14.526131,121.074212,"Santa Ana, Taguig, Metro Manila, Philippines"
30-May,5,14,KA,100757,7-11 TAGUIG CITY HALL ST1438,15,100,48,3,,14.528948,121.071015,"Tuktukan, Taguig, 1630 Metro Manila, Philippines"
30-May,5,15,KA,108708,7-11 ST2476 BAY BREEZE,15,108,53,6,,14.518977,121.073744,"Hagonoy, Taguig, Metro Manila, Philippines"
30-May,5,16,KA,100738,7-11 LOWER BICUTAN 2,15,162,79,5,,14.508386,121.066193,"New Lower Bicutan, Taguig, 1630 Metro Manila, Philippines"
30-May,5,17,KA,109271,7-11 ST2528 CENTRAL SIGNAL VILLAGE 2,15,145,71,4,,14.513863,121.053346,"North Signal Village, Taguig, 1630 Metro Manila, Philippines"
30-May,5,18,KA,103914,7-11 ST1117 CENTRAL SIGNAL,15,119,77,4,,14.511135,121.057829,"Central Signal Village, Taguig, 1630 Metro Manila, Philippines"
30-May,5,19,KA,100782,7-11 ST1625 WESTERN BICUTAAN,20,161,78,5,,14.517216,121.051216,"Pinagsama, Taguig, Metro Manila, Philippines"
30-May,5,20,KA,100644,7-11 ST963 BAYANI ROAD,15,148,105,7,,14.525523,121.043219,"Amber Place, 19, Taguig, 1630 Metro Manila, Philippines"
30-May,5,21,KA,100816,7-11 ST1860 PINAGSAMA VILL,22,155,75,4,,14.523668,121.055626,"Pinagsama, Taguig, Metro Manila, Philippines"
30-May,5,22,KA,100645,7-11 ST798C5 DAMAYAN,15,145,71,5,,14.526522,121.056193,"C5 Service Rd, Manila, 1630 Metro Manila, Philippines"
30-May,5,23,KA,109154,7-11 ST2514 UPTOWN MALL,15,171,83,5,,14.556818,121.05555,"Fort Bonifacio, Taguig, Metro Manila, Philippines"
30-May,5,24,KA,100510,7-11 ST440 TOTAL CORPORATE,15,114,52,4,,14.56046,121.055873,"40th Street, Taguig, Metro Manila, Philippines"
30-May,5,25,KA,100863,7-11 ST2003 BGC ORION,14,68,51,3,,14.558541,121.056244,"Fort Bonifacio, Taguig, Metro Manila, Philippines"
30-May,5,32,KA,100696,7-11 ST1223 FORBESWOOD PARKLANE,23,71,53,3,,14.550708,121.044861,"8 Forbestown Road, Taguig, Metro Manila, Philippines"
30-May,5,33,KA,100545,7-11 NET SQUARE,23,86,64,4,,14.551079,121.045829,"3rd Ave, Taguig, Metro Manila, Philippines"
30-May,5,34,KA,100505,7-11 ST390 ONE MCKINLEY,23,96,71,4,,14.549333,121.045671,"Fort Bonifacio, Taguig, Metro Manila, Philippines"
30-May,5,35,KA,100672,7-11 ST1311 RCBC TAGUIG,23,103,77,4,,14.548661,121.047425,"Fort Bonifacio, Taguig, Metro Manila, Philippines"
30-May,6,1,KA,100668,7-11 ST1118 CPI J. VARGAS,23,66,49,3,,14.584552,121.063273,"San Antonio, Pasig, Kalakhang Maynila, Philippines"
30-May,6,2,KA,100717,7-11 ST1343 SUNTREE TOWER,23,78,58,3,,14.585748,121.063265,"27 Sapphire Rd, San Antonio, Pasig, Metro Manila, Philippines"
30-May,6,3,KA,100448,7-11 PINEDA,23,220,164,6,,14.563584,121.06522,"Pineda, Pasig, Metro Manila, Philippines"
30-May,6,5,KA,108114,7-11 ST2392 ORANBO,23,53,26,2,,14.573024,121.063865,"152 Oranbo Dr, Pasig, 1605 Metro Manila, Philippines"
30-May,6,6,KA,100709,7-11 ST1315 ESCRIVA,15,82,40,3,,14.578163,121.060011,"San Antonio, Pasig, Kalakhang Maynila, Philippines"
30-May,6,7,KA,107131,7-11 SHANGRILA NORTH WING,15,65,31,3,,14.581487,121.056157,"Ortigas Center, Pasig, Metro Manila, Philippines"
30-May,6,8,KA,100569,7-11 ST. FRANCIS TOWER,15,56,41,3,,14.57968,121.056434,"11 St Francis, Ortigas Center, Pasig, Metro Manila, Philippines"
30-May,6,9,KA,100526,7-11 SUN PLAZA,23,65,48,3,,14.585282,121.049049,"Wack-Wack Greenhills, Mandaluyong, Metro Manila, Philippines"
30-May,6,10,KA,107164,7-11 ST2297 500 SHAW 2,23,53,39,3,,14.588275,121.043364,"Pleasant Hills, Mandaluyong, Metro Manila, Philippines"
30-May,6,11,KA,100721,7-11 LIBERTY SHAW,23,58,29,2,,14.588822,121.041813,"Pleasant Hills, Mandaluyong, Metro Manila, Philippines"
30-May,6,12,KA,100630,7-11 EMAR SUITES,15,160,78,4,,14.589633,121.038803,"Emar Suites, 409 Shaw Blvd, Mandaluyong, 1556 Metro Manila, Philippines"
30-May,6,13,KA,100786,7-11 SHAW CENTER MALL ST1391,15,83,40,3,,14.588983,121.037042,"Addition Hills, Mandaluyong, Metro Manila, Philippines"
30-May,6,14,KA,100411,7-11 A. BONIFACIO,15,172,83,5,,14.589629,121.0349,"Estrella Compound, 10. A. Bonifacio Street, Hagdang Bato Libis, Mandaluyong City, 10 A. Bonifacio, Mandaluyong, 1550 Kalakhang Maynila, Philippines"
30-May,6,15,KA,113404,7-11 ST2707 HIGH POINTE,15,182,65,4,,14.59109,121.03282,"Bagong Silang, Mandaluyong, Metro Manila, Philippines"
30-May,6,16,KA,100415,7-11 ST36 JRC SHAW,11,69,34,2,,14.593374,121.027484,"GOMEGA Condominium, P. Martinez, Mandaluyong, Metro Manila, Philippines"
30-May,6,17,KA,100825,7-11 ST1800 CPI KALENTONG,15,38,19,2,,14.59418,121.027491,"Daang Bakal, Mandaluyong, Kalakhang Maynila, Philippines"
30-May,6,18,KA,100601,7-11 ST2100 F. MANALO,15,37,18,2,,14.595667,121.02816,"Kabayanan, Lungsod ng San Juan, Kalakhang Maynila, Philippines"
30-May,6,19,KA,103912,7-11 ST2117 AGLIPAY 2,15,48,24,2,,14.589608,121.023391,"Mandaluyong, Metro Manila, Philippines"
30-May,6,20,KA,100418,7-11 ST144 REV. AGLIPAY,15,139,103,4,,14.586249,121.02585,"Poblacion, Mandaluyong, Metro Manila, Philippines"
30-May,6,21,KA,100769,7-11 SGT. BUMATAY ST1417,23,64,31,4,,14.575927,121.033974,"Plainview, Mandaluyong, Metro Manila, Philippines"
30-May,6,22,KA,100865,7-11 ST2000 BARANGCA 2,15,107,52,3,,14.570376,121.036798,"Barangka Drive, Mandaluyong, Metro Manila, Philippines"
30-May,6,23,KA,100412,7-11 ST31 BARANCCA,15,94,46,3,,14.575677,121.041087,"PAZ Bldg, Halcon Boni Ave, Mandaluyong, Metro Manila, Philippines"
30-May,6,25,KA,100547,7-11 DMG CENTER,15,137,67,4,,14.579755,121.045472,"986 Calbayog Extension, Mandaluyong, Metro Manila, Philippines"
30-May,6,26,KA,100844,7-11 ST1784 CALBAYOG,15,47,23,2,,14.581547,121.049349,"Highway Hills, Mandaluyong, Metro Manila, Philippines"
30-May,6,27,KA,100809,7-11 ST1660 SIERRA MADRE MANDA,15,44,22,2,,14.580726,121.052592,"Highway Hills, Mandaluyong, Metro Manila, Philippines"
30-May,6,28,KA,100836,7-11 ST1788 SULTAN EDSA,15,69,34,2,,14.58106,121.053175,"Highway Hills, Mandaluyong, Metro Manila, Philippines"
30-May,6,29,KA,100641,7-11 ST937 VRP SIERRA MADRE,15,51,25,2,,14.576721,121.049621,"Reliance, Mandaluyong, Metro Manila, Philippines"
30-May,6,30,KA,106850,7-11 ST2159 588 RESIDENCES,15,69,34,3,,14.575238,121.04761,"586 Cordillera, Mandaluyong, 1550 Kalakhang Maynila, Philippines"
30-May,6,33,KA,100447,7-11 ST195 RFM PASIG,15,71,52,3,,14.571046,121.052516,"Kapitolyo, Pasig, Metro Manila, Philippines"
30-May,6,34,KA,109267,7-11 ST2615 TV 5 RELIEANCE,23,57,28,2,,14.573684,121.054076,"Highway Hills, Mandaluyong, Metro Manila, Philippines"
30-May,6,35,KA,100692,7-11 ST1185 UPTOWN CENTER,15,84,41,3,,14.571911,121.050301,"Barangka Ilaya, Mandaluyong, Kalakhang Maynila, Philippines"
30-May,6,36,KA,100577,7-11 PIONEER WOODLANDS,15,116,56,4,,14.573013,121.048119,"Barangka Ilaya, Mandaluyong, Kalakhang Maynila, Philippines"
30-May,6,37,KA,100529,7-11 PARAGON PLAZA,15,42,20,2,,14.576371,121.050661,"Reliance St, Mandaluyong, Metro Manila, Philippines"
30-May,6,38,KA,108438,7-11 ST2395 AVIDA CENTERA,15,44,22,2,,14.576688,121.050724,"Highway Hills, Mandaluyong, Metro Manila, Philippines"
30-May,6,39,KA,100684,7-11 ST1123 GREENFIELD IT,15,62,46,3,,14.578767,121.052865,"Highway Hills, Mandaluyong, Metro Manila, Philippines"
30-May,6,40,KA,100646,7-11 ST870 SOHO CENTRAL,23,49,35,3,,14.57925,121.0555,"748 Shaw Boulevard, Mandaluyong, Metro Manila, Philippines"
30-May,6,41,KA,113461,LAWSON ROCKWELL SHERIDAN,22,138,36,3,,14.576262,121.05524,"1 Sheridan, Mandaluyong, 1550 Metro Manila, Philippines"
28-May,6,31,KA,100413,7-11 ST20 BONI-EDSA,8,67,48,3,,14.57277,121.047127,"Malamig, Mandaluyong, Kalakhang Maynila, Philippines"
28-May,6,32,KA,100538,7-11 BONI-EDSA 2,22,47,34,3,,14.572187,121.046819,"37 Epifanio de los Santos Ave, Mandaluyong, 1550 Metro Manila, Philippines"
28-May,6,42,KA,100670,7-11 ST1067 CALTEX SHAW PIONEER,22,58,27,3,,14.575988,121.059282,"Kapitolyo, Pasig, Metro Manila, Philippines"
28-May,6,43,KA,100647,7-11 ST1037 BRIXTON D ACE PLAZA,14,56,38,3,,14.573363,121.059279,"Kapitolyo, Pasig, Metro Manila, Philippines"
21-May,6,4,KA,107131,7-11 ST2052 NORTHWING SHANGRI-LA,21,20,5,1,,14.581487,121.056157,"Ortigas Center, Pasig, Metro Manila, Philippines"
6-May,6,23,KA,100536,7-11 BONI MALAMIG,7,0,0,2,,14.573917,121.043494,"San Francisco Gardens, Manila, Metro Manila, Philippines"
30-May,7,1,KA,109836,7-11 ST2727 21ST AVE.,1,39,19,4,,14.621661,121.064035,"Tagumpay, Project 4, Quezon City, Metro Manila, Philippines"
30-May,7,2,KA,103673,7-11 ST1199 PORTAVITA,15,49,24,2,,14.61959,121.058507,"Socorro, Cubao, Quezon City, Metro Manila, Philippines"
30-May,7,3,KA,100597,7-11 ALIMALL 2,15,90,44,3,,14.619063,121.057113,"118 P. Tuazon Blvd, Cubao, Quezon City, 1109 Metro Manila, Philippines"
30-May,7,4,KA,100742,7-11 ST1310 SEAOIL P. TUAZON,15,86,42,3,,14.616236,121.052927,"Socorro, Cubao, Quezon City, Metro Manila, Philippines"
30-May,7,5,KA,100725,7-11 ST1345 KAMIAS 2,15,49,24,2,,14.631031,121.046354,"Kamuning Bus Stop, 12b altherton place Tomas morato corner roces landmark, Diliman, Quezon City, Metro Manila, Philippines"
30-May,7,6,KA,100613,7-11 ST805 EAST AVENUE 2,15,95,46,3,,14.63303,121.045218,"Pinyahan, Diliman, Quezon City, Metro Manila, Philippines"
30-May,7,7,KA,100635,7-11 ST766 K-ZONE,15,57,28,2,,14.638162,121.04173,"Pinyahan, Diliman, Quezon City, Metro Manila, Philippines"
30-May,7,8,KA,100707,7-11 ST1128 ETON CYBERPOD 3,15,152,118,5,,14.641304,121.040523,"Pinyahan, Diliman, Quezon City, Metro Manila, Philippines"
30-May,7,9,KA,100551,7-11 CENTRIS 1,24,76,59,3,,14.642782,121.039151,"1101 Quezon Ave, Diliman, Quezon City, Metro Manila, Philippines"
30-May,7,10,KA,100593,7-11 EDSA GRAND,24,55,27,2,,14.657296,121.024301,"Ramon Magsaysay, Bago Bantay, Quezon City, Metro Manila, Philippines"
30-May,7,11,KA,100524,7-11 MUNOZ 2,15,95,46,3,,14.657893,121.020696,"Roosevelt Station, 1039 Epifanio de los Santos Ave, Bago Bantay, Quezon City, 1105 Metro Manila, Philippines"
30-May,7,12,KA,109669,7-11 ST2685 HOWMART,15,224,109,6,,14.657682,121.010922,"Kaingin Road, Balintawak, Quezon City, Metro Manila, Philippines"
30-May,7,13,KA,100859,7-11 ST1909 BAESA 2 (MANOTOK),15,92,45,4,,14.671274,121.011433,"Baesa, Quezon City, Metro Manila, Philippines"
30-May,7,14,KA,100718,7-11 ST1335 BAESA,15,92,45,3,,14.666726,121.007296,"Baesa, Quezon City, Metro Manila, Philippines"
30-May,7,15,KA,100498,7-11 ST349 TEACHERS BLISS,15,165,80,4,,14.66334,121.001992,"Balong Bato, Quezon City, Metro Manila, Philippines"
30-May,7,16,KA,113144,7-11 CAMACHILE,15,174,84,5,,14.661011,120.999694,"Unang Sigaw, Balintawak, Quezon City, Metro Manila, Philippines"
30-May,7,17,KA,100870,7-11 ST1991 DELA SALLE ARANETA,15,73,36,3,,14.670403,120.999205,"Potrero, Malabon, Metro Manila, Philippines"
30-May,7,18,KA,100735,7-11 ST1306 BAGONG BARRIO,15,226,110,6,,14.664202,120.996114,"Bagong Barrio West, Caloocan, Metro Manila, Philippines"
30-May,7,19,KA,100433,7-11 ST39 MCU,15,221,107,5,,14.65745,120.987419,"84, Morning Breeze Subdivision, Caloocan, Metro Manila, Philippines"
30-May,7,20,KA,113122,7-11 ST2912 SAMSON ROAD 2,15,150,73,5,,14.657632,120.977163,"University Hills Subdivision, Caloocan, Metro Manila, Philippines"
30-May,7,21,KA,109490,7-11 ST2465 UE TECH,15,72,35,3,,14.657783,120.975578,"263 UE Tech, Caloocan, 1407 Kalakhang Maynila, Philippines"
30-May,7,22,KA,100570,7-11 TUGATOG MALABON,15,113,55,4,,14.661717,120.969873,"Tugatog, Malabon, Metro Manila, Philippines"
30-May,7,23,KA,100719,7-11 ST1167 SAMSON RD.,15,102,50,4,,14.657729,120.971253,"MH Del Pilar, Sangandaan, Caloocan, Metro Manila, Philippines"
30-May,7,24,KA,100774,7-11 ST1632 MALABON 3,15,171,83,5,,14.653452,120.959942,"Longos, Malabon, Metro Manila, Philippines"
30-May,7,25,KA,100674,7-11 ST1102 CONCEPCION UNO MALABON,15,123,60,4,,14.668686,120.947314,"Concepcion, Malabon, Metro Manila, Philippines"
30-May,7,26,KA,100785,7-11 ST1313 HULONG DUHAT MALABON,15,92,45,4,,14.676061,120.942609,"Flores, Malabon, Metro Manila, Philippines"
30-May,7,27,KA,107177,7-11 ST2200 NAVOTAS CITY HALL,15,64,31,3,,14.657075,120.9478,"Sipac-Almacen, Navotas, Metro Manila, Philippines"
30-May,7,28,KA,100706,7-11 ST1332 NAVOTAS 2,15,99,48,3,,14.663058,120.945431,"San Jose, Navotas, Metro Manila, Philippines"
30-May,7,29,KA,100839,7-11 ST1842 TANGOS NAVOTAS,15,120,59,4,,14.672093,120.935121,"Tangos South, Navotas, Metro Manila, Philippines"
30-May,7,30,KA,108859,7-11 ST2201 KASARINLAN,15,135,65,4,,14.644365,120.969616,"28, Caloocan, Metro Manila, Philippines"
30-May,7,31,KA,100820,7-11 ST1643 CALOOCAN CITY,15,52,25,3,,14.652148,120.97221,"Martin Building, Plaridel St., Dagat-Dagatan, Caloocan, Metro Manila, Philippines"
30-May,7,32,KA,100665,7-11 ST1101 OK PLAZA,15,93,45,3,,14.65656,120.981842,"104 Francisco, Manila, Metro Manila, Philippines"
30-May,7,33,KA,100438,7-11 MCU 2,15,121,59,4,,14.656905,120.985575,"EverFirst Loans Corporation Monumento branch, 2nd floor, Dytronix Bldg. EDSA cor. Gen. Simon st. Monumento, Caloocan City, Morning Breeze Subdivision, Caloocan, Kalakhang Maynila, Philippines"
30-May,7,34,KA,100567,7-11 MCU 3,15,60,29,2,,14.656582,120.988221,"East Grace Park, Caloocan, Metro Manila, Philippines"
30-May,7,35,KA,100689,7-11 ST1206 WCC CALOOCAN,15,49,24,2,,14.656072,120.991178,"87, East Grace Park, Caloocan, Metro Manila, Philippines"
30-May,7,36,KA,106599,7-11 ST2070 NOTRE DAME,15,62,30,3,,14.654018,120.991957,"96, East Grace Park, Caloocan, Metro Manila, Philippines"
30-May,8,1,KA,109879,7-11 ST2753 UP TOWN CENTER,15,94,70,3,,14.651741,121.074703,"96, East Grace Park, Caloocan, Metro Manila, Philippines"
30-May,8,2,KA,109881,7-11 STI REGALADO,23,93,39,4,,14.716346,121.061345,"U.P. Town Center, Diliman, Quezon City, Metro Manila, Philippines"
30-May,8,3,KA,107970,7-11 ST2276 REGALADO HIGHWAY,13,105,51,4,,14.734572,121.061317,"Barangay Greater Lagro, Novaliches, Quezon City, Metro Manila, Philippines"
30-May,8,4,KA,100838,7-11 ST1869 CPI LAGRO,15,48,23,2,,14.7352,121.064038,"Barangay Greater Lagro, Novaliches, Quezon City, Metro Manila, Philippines"
30-May,8,6,KA,100564,7-11 LAGRO,15,55,27,2,,14.73375,121.067547,"Barangay Greater Lagro, Novaliches, Quezon City, Metro Manila, Philippines"
30-May,8,7,KA,112971,7-11 ST2806 FATIMA LAGRO,15,100,49,3,,14.7356,121.069368,"Novaliches, Quezon City, Metro Manila, Philippines"
30-May,8,8,KA,109491,7-11 ST2676 FAIRVIEW TERRACES,15,226,110,6,,14.735617,121.059972,"Ayala Fairview Terraces, 2 Quirino Highway Corner Maligaya Drive, Pasong Putik , Novaliches, Quezon City, 1118 Metro Manila, Philippines"
30-May,8,9,KA,108644,7-11 ROBINSONS NOVALICHES ST2544,15,60,29,3,,14.73578,121.055491,"Novaliches, Quezon City, Metro Manila, Philippines"
30-May,8,10,KA,109198,7-11 ST2393 NIGTHINGALE QUIRINO,15,90,44,3,,14.733692,121.052192,"Save More Drugstore, Nightingale, Novaliches, Quezon City, Metro Manila, Philippines"
30-May,8,11,KA,112970,7-11 ST2653 BRITTANY SQUARE,15,88,43,3,,14.726751,121.057815,"Novaliches, Quezon City, Metro Manila, Philippines"
30-May,8,12,KA,100726,7-11 MALIGAYA PARK,15,87,42,3,,14.738157,121.058854,"Novaliches, Quezon City, Metro Manila, Philippines"
30-May,8,13,KA,107344,7-11 ST2185 CALAMANSIAN,15,99,48,4,,14.747592,121.062384,"Barangay 178, Caloocan, Metro Manila, Philippines"
30-May,8,14,KA,100792,7-11 ST1594 DELA COSTA HOMES,15,133,65,4,,14.744617,121.07783,"Barangay 179, Novaliches, Caloocan, Metro Manila, Philippines"
30-May,8,15,KA,109268,7-11 ST2516 SAMPAGUITA CALOOCAN,15,74,36,3,,14.774161,121.077276,"Barangay 185, Novaliches, Caloocan, Metro Manila, Philippines"
30-May,8,16,KA,106845,7-11 ST2040 BAGONG SILANG HS,15,91,44,3,,14.770023,121.048666,"Bagong Silang, Caloocan, Metro Manila, Philippines"
30-May,8,17,KA,100810,7-11 ST1645 BAGONG SILANG 4,15,132,64,5,,14.775631,121.061097,"Bagong Silang, Caloocan, Metro Manila, Philippines"
30-May,8,18,KA,100762,7-11 BAGONG SILANG 2 ST1500,15,209,101,6,,14.772277,121.055177,"Bagong Silang, Caloocan, Metro Manila, Philippines"
30-May,8,19,KA,100687,7-11 ST1180 BAGONG SILANG,15,130,63,4,,14.776751,121.04638,"Bagong Silang, Caloocan, Metro Manila, Philippines"
30-May,8,20,KA,100766,7-11 ST1559 BAGONG SILANG 3,15,79,39,3,,14.781227,121.032457,"Bagong Silang, Caloocan, Metro Manila, Philippines"
30-May,8,21,KA,106358,7-11 ST2033 LIBIS CAMARIN,15,127,58,4,,14.765772,121.045025,"Barangay 175, Caloocan, Metro Manila, Philippines"
30-May,8,22,KA,108466,7-11 ST2028 UCC CAMARIN,14,130,63,4,,14.760047,121.049447,"Barangay 174, Caloocan, Metro Manila, Philippines"
30-May,8,23,KA,100791,7-11 ST1638 BRIXXTON,15,152,74,4,,14.762527,121.043749,"Barangay 175, Caloocan, Metro Manila, Philippines"
30-May,8,24,KA,109196,7-11 ST2508 LA FORTEZA,15,95,46,3,,14.759016,121.043637,"Barangay 175, Caloocan, Metro Manila, Philippines"
30-May,8,25,KA,100423,7-11 CAMARIN,15,161,78,5,,14.755946,121.043835,"Barangay 177, Metro Manila, Philippines"
30-May,8,26,KA,100700,7-11 ST1231 CAMARIN 3,15,196,89,5,,14.756499,121.061292,"Barangay 174, Caloocan, Metro Manila, Philippines"
30-May,8,27,KA,100691,7-11 ST1158 CAMARIN 2,14,196,95,5,,14.756717,121.053522,"Barangay 177, Metro Manila, Philippines"
30-May,8,28,KA,100864,7-11 ST1779 CIELITO,15,114,55,4,,14.746996,121.053601,"Barangay 177, Metro Manila, Philippines"
30-May,8,29,KA,108473,7-11 ST2268 NORTH OLYMPUS,15,137,66,4,,14.739499,121.046787,"Kaligayahan, Novaliches, Quezon City, Metro Manila, Philippines"
30-May,8,30,KA,100779,7-11 ST1601 HILLCREST VILLAGE,15,105,51,3,,14.751199,121.038477,"173, Novaliches, Caloocan, Metro Manila, Philippines"
30-May,8,31,KA,100822,7-11 ST1664 URDUJA VILLAGE,15,86,42,3,,14.744541,121.034554,"Barangay 168, Caloocan, Metro Manila, Philippines"
30-May,8,32,KA,100745,7-11 VICAS CALOOCAN,15,85,39,3,,14.747561,121.033739,"Barangay 171, Caloocan, Metro Manila, Philippines"
30-May,8,33,KA,107233,7-11 ST2074 ST. BENEDICT CALOOCAN,14,123,56,4,,14.759746,121.027769,"Barangay 171, Caloocan, Metro Manila, Philippines"
30-May,8,34,KA,103911,7-11 ST2067 RAINBOW VILL,14,123,56,3,,14.747953,121.028076,"Barangay 171, Caloocan, Metro Manila, Philippines"
30-May,8,35,KA,100596,7-11 MINDANAO AVENUE,14,137,62,5,,14.690397,121.027516,"Talipapa, Novaliches, Quezon City, Metro Manila, Philippines"
30-May,9,1,KA,100690,7-11 ST1237 MANGGAHAN INDUSTRIAL PARK,14,51,25,3,,14.606399,121.092085,"Manggahan, Pasig, Metro Manila, Philippines"
30-May,9,8,KA,100619,7-11 ST781 KINGSVILLE,15,75,37,2,,14.623871,121.118464,"Mayamot, Antipolo, Rizal, Philippines"
30-May,9,9,KA,100801,7-11 ST1423 PAGRAI ANTIPOLO,15,207,100,6,,14.625643,121.145512,"Cupang, Antipolo, Rizal, Philippines"
30-May,9,10,KA,100812,7-11 ST1648 PENAFRANCCA,15,158,77,5,,14.624894,121.138166,"Cupang, Antipolo, Rizal, Philippines"
30-May,9,11,KA,108654,7-11 ST2454 PADILLA,15,123,60,4,,14.616952,121.185496,"Padilla, Antipolo, 1870 Rizal, Philippines"
30-May,9,12,KA,100866,7-11 ST1744 DELA PAZ ANTIPOLO,15,149,72,4,,14.61969,121.180552,"Padilla, Antipolo, 1870 Rizal, Philippines"
30-May,9,13,KA,100435,7-11 ST454 COGEO,15,115,56,4,,14.621312,121.169224,"GSIS Ave, Antipolo, 1870 Rizal, Philippines"
30-May,9,14,KA,100403,7-11 MASINAG,15,79,39,3,,14.625635,121.124746,"Sumulong1, Marikina-Infanta Hwy, Antipolo, 1800 Rizal, Philippines"
30-May,9,15,KA,100599,7-11 SUMULONG HIGHWAY 2,15,79,39,3,,14.629338,121.121727,"Sumulong1, Marikina-Infanta Hwy, Antipolo, 1800 Rizal, Philippines"
30-May,9,16,KA,100843,7-11 ST1970 RANCHO 2 (MARIKINA),15,158,77,4,,14.639136,121.127163,"Concepcion Dos, Marikina, Metro Manila, Philippines"
30-May,9,17,KA,108595,7-11 ST2212 CUPANG ANTIPOLO,15,153,74,5,,14.638735,121.131604,"Cupang, Rizal, Philippines"
30-May,9,18,KA,100752,7-11 RANCHO ST1361,15,53,26,3,,14.64234,121.121882,"Concepcion Dos, Marikina, Metro Manila, Philippines"
30-May,9,19,KA,106361,7-11 ST2023 SSS VILLAGE MARIKINA,15,71,35,3,,14.642038,121.110484,"Concepcion Uno, Marikina, 1800 Metro Manila, Philippines"
30-May,9,20,KA,100662,7-11 ST1099 VERMONT,15,339,11,7,,14.623968,121.116256,"DWED-FM 97.5 Transmitter (Soon), Albany Ext, Antipolo, 1800 Rizal, Philippines"
30-May,9,21,KA,106362,7-11 ST2154 FERNANDO AVE. MARIKINA,1,61,30,3,,14.625181,121.102262,"San Roque, Marikina, 1800 Metro Manila, Philippines"
30-May,9,22,KA,100736,7-11 CALUMPANG,15,77,38,3,,14.623092,121.096335,"Calumpang, Marikina, 1800 Metro Manila, Philippines"
30-May,9,23,KA,100747,7-11 WPAZ ST1349,15,50,24,3,,14.632339,121.095205,"Santa Elena, Marikina, 1800 Metro Manila, Philippines"
30-May,9,24,KA,100460,7-11 ST257 SHOE AVENUE,15,113,73,4,,14.633472,121.097725,"Centro Felicidad, 182, Marikina, 1800 Metro Manila, Philippines"
30-May,9,25,KA,100695,7-11 ST1110 TROPICANA GARDEN,20,76,49,3,,14.634628,121.104846,"Santo Niño, Marikina, 1800 Metro Manila, Philippines"
30-May,9,26,KA,100637,7-11 MARQUINTON-CORDOVA,20,47,23,2,,14.636071,121.100938,"Cordova Tower Marquinton Residences, 103 Sumulong Hi-Way, Sto Nino, Marikina, 1800 Metro Manila, Philippines"
30-May,9,27,KA,100571,7-11 V SANTOS - P BURGOS,15,106,52,4,,14.636378,121.095514,"Santo Niño, Marikina, 1800 Metro Manila, Philippines"
30-May,9,28,KA,100461,7-11 ST256 MARIKINA BRIDGE,15,101,49,4,,14.635801,121.094529,"Santo Niño, Marikina, 1800 Metro Manila, Philippines"
30-May,9,29,KA,100404,7-11 ST134 MOLAVE,15,136,66,4,,14.651064,121.111644,"Marikina Heights, Metro Manila, Philippines"
30-May,9,30,KA,100405,7-11 ST123 PARANG,15,159,77,4,,14.659884,121.11309,"Parang, Marikina, Metro Manila, Philippines"
30-May,9,31,KA,100578,7-11 TUMANA MARIKINA,15,125,61,4,,14.653286,121.102892,"Tumana - Balara Jeepney Terminal, Bagong Farmers Ave 1, Marikina, 1800 Metro Manila, Philippines"
30-May,9,32,KA,108646,"7-11 ST2379 NANGKA,MARIKINA",15,108,53,4,,14.669749,121.108202,"Nangka, Marikina, Metro Manila, Philippines"
30-May,9,33,KA,106710,7-11 ST2128 CP SAN MATEO,15,76,37,3,,14.67957,121.113377,"San Mateo, Rizal, Philippines"
30-May,9,34,KA,100660,7-11 ST1059 SAN MATEO 2,15,110,53,3,,14.682482,121.115455,"15 E Delos Santos Rd, Ampid 1, San Mateo, 1850 Rizal, Philippines"
30-May,9,35,KA,100591,7-11 SAN MATEO,15,128,62,4,,14.695388,121.118348,"Everfirst Loans Corporation San Mateo Branch, 2nd Floor, BSD Primegates Center 105 Gen. Luna Ave., Gitnangbayan San Mateo, Rizal, San Mateo, Lalawigan ng Rizal, Philippines"
30-May,9,36,KA,100830,7-11 ST1873 DULONG BAYAN,15,59,29,2,,14.700996,121.125184,"Dulong Bayan 1, San Mateo, Rizal, Philippines"
30-May,9,37,KA,100746,7-11 SAN MATEO 3,15,82,40,3,,14.710371,121.133362,"San Mateo, Rizal, Philippines"
30-May,9,38,KA,107311,7-11 ST2176 RODRIGUEZ BOUNDARY,15,88,43,3,,14.715088,121.136226,"Burgos, Rodriguez, Lalawigan ng Rizal, Philippines"
30-May,9,40,KA,107053,7-11 ST2168 TOTAL MONTALBAN,15,108,53,4,,14.7351,121.15227,"Rodriguez, Rizal, Philippines"
30-May,9,41,KA,107052,7-11 ST2151 SAN RAFAEL WAWA,15,46,23,2,,14.734265,121.159342,"Rodriguez, Rizal, Philippines"
30-May,9,42,KA,107312,7-11 ST2175 SAN ISIDRO MONTALBAN,15,94,46,4,,14.740991,121.160688,"Rodriguez, Rizal, Philippines"
30-May,9,43,KA,109158,7-11 ST2549 TAGUMPAY RODRIGUEZ,15,142,69,5,,14.746997,121.130967,"Rodriguez, Rizal, Philippines"
14-May,9,39,KA,100642,7-11 ST952 MONTALBAN,15,77,18,3,,14.730008,121.137776,"Rodriguez, Rizal, Philippines"
30-May,10,1,KA,101329,7-11 CITY OIL OLD STA.MESA ST1529,7,77,38,3,,14.601001,121.019918,"Brgy. 598, Santa Mesa, Manila, Metro Manila, Philippines"
30-May,10,2,KA,112643,7-ELEVEN AMAIA STA. MESA,15,134,65,4,,14.597624,121.017972,"Brgy. 600, Santa Mesa, Manila, Metro Manila, Philippines"
30-May,10,3,KA,101302,7-11 ST1171 V. MAPA,15,110,53,4,,14.602324,121.0162,"Brgy. 595, Santa Mesa, Manila, Metro Manila, Philippines"
30-May,10,4,KA,101333,7-11 ST1650 LRT PUREZA,15,76,37,3,,14.601868,121.004946,"Pureza, 626 Sta Mesa Ramon Magsaysay Boulevard, Santa Mesa, Manila City, 1016 Metro Manila, Philippines"
30-May,10,5,KA,101249,7-11 VG CRUZ,15,85,41,3,,14.601596,121.00222,"Brgy. 424, Sampaloc, Manila, Metro Manila, Philippines"
30-May,10,6,KA,101339,7-11 ST1700 PUP HASMIN,15,89,44,3,,14.601158,121.001593,"372 Valencia, Santa Mesa, Maynila, 1016 Kalakhang Maynila, Philippines"
30-May,10,7,KA,101303,7-11 ST1177 PUREZA 3,15,90,44,3,,14.601405,121.004257,"A & B Liner Inc., 3167 Magsaysay Blvd, Sampaloc, Manila, Metro Manila, Philippines"
30-May,10,8,KA,101290,7-11 ST1041 PUREZA 2,15,101,49,3,,14.600517,121.004644,"Brgy. 626, Santa Mesa, Manila, Metro Manila, Philippines"
30-May,10,9,KA,101235,7-11 ST374 OLD STA. MESA,15,88,43,3,,14.600355,121.013459,"Brgy. 591, Santa Mesa, Manila, Metro Manila, Philippines"
30-May,10,10,KA,101345,7-11 ST1740 OTIS,15,80,37,3,,14.590337,120.997858,"Brgy. 829, Paco, Manila, Metro Manila, Philippines"
30-May,10,11,KA,103661,7-11 ST1935 CPI PANDACAN,14,57,26,3,,14.590841,121.001486,"Brgy. 832, Pandacan, Manila, Metro Manila, Philippines"
30-May,10,12,KA,109835,7-11 ST2446 WEST ZAMORA,14,241,109,6,,14.584009,120.998644,"Brgy. 826, Paco, Manila, Metro Manila, Philippines"
30-May,10,13,KA,101211,7-11 ST24 PACO PAZ,14,80,36,3,,14.578702,120.995395,"Brgy. 683, Paco, Manila, Metro Manila, Philippines"
30-May,10,14,KA,101326,7-11 PACO ST1531,14,153,74,5,,14.578174,120.992943,"Brgy. 675, Paco, Manila, Metro Manila, Philippines"
30-May,10,15,KA,103848,7-11 ST450 PWU,15,151,73,4,,14.573931,120.990418,"Brgy. 693, Malate, Manila, 1004 Metro Manila, Philippines"
30-May,10,16,KA,103861,7-11 ST1232 WYNN PLAZA,15,109,53,3,,14.57544,120.99016,"Brgy. 694, Malate, Manila, 1004 Metro Manila, Philippines"
30-May,10,17,KA,106875,7-11 ST2048 REMEDIOS 2,15,102,50,3,,14.573533,120.992497,"Brgy. 689, Malate, Manila, 1004 Metro Manila, Philippines"
30-May,10,18,KA,103866,7-11 ST1673 VELAGIO TOWER,15,56,27,3,,14.570581,120.992298,"Leonis Building, Leon Guinto St, Paco, Manila, 1004 Metro Manila, Philippines"
30-May,10,19,KA,103841,7-11 SINGALONG,15,75,37,3,,14.571396,120.994751,"647 Singalong Corner San Andres, Malate, Manila, 1004 Metro Manila, Philippines"
30-May,10,20,KA,103847,7-11 ST436 LEVERIZA MALATE,15,113,55,4,,14.567871,120.989248,"2113 Leveriza St, Malate, Manila, 1004 Metro Manila, Philippines"
30-May,10,21,KA,103892,7-11 ST1151 ADRIATICO GARDEN,15,69,33,2,,14.564495,120.990194,"Adriatico Gardens, Adriatico St, Malate, Manila, 1004 Metro Manila, Philippines"
30-May,10,22,KA,103849,7-11 QUIRINO ERMITA,15,58,28,3,,14.565385,120.986981,"Brgy. 701, Malate, Manila, 1004 Metro Manila, Philippines"
30-May,10,23,KA,103854,7-11 SUNRISE MH DEL PILAR,15,111,54,4,,14.565477,120.986196,"Sanrise, M. H. Del Pilar St, Malate, Manila, 1004 Metro Manila, Philippines"
30-May,10,24,KA,103852,7-11 ST1079 A MABINI,15,69,34,3,,14.566484,120.986064,"2108 M. H. Del Pilar St, Malate, Manila, 1004 Metro Manila, Philippines"
30-May,10,25,KA,103851,7-11 SAN ANDRES,15,82,40,3,,14.568518,120.985535,"Brgy. 701, Malate, Manila, 1004 Metro Manila, Philippines"
30-May,10,26,KA,108236,7-11 ST2442 HOP INN,15,94,46,3,,14.570368,120.983823,"Arirang Hotel, 1767 A. Mabini St, Malate, Manila, 1004 Metro Manila, Philippines"
30-May,10,27,KA,103859,7-11 ST877 TUNES HOTEL,15,60,30,3,,14.571121,120.984426,"Brgy. 699, Malate, Manila, 1004 Metro Manila, Philippines"
30-May,10,28,KA,106642,7-11 A.MABINI 2 ST1526,15,56,27,2,,14.572031,120.983892,"Brgy. 699, Malate, Manila, 1004 Metro Manila, Philippines"
30-May,10,29,KA,103843,7-11 ST279 MARINA,15,68,33,3,,14.573476,120.983336,"1495 Pedro Gil St, Malate, Manila, 1004 Metro Manila, Philippines"
30-May,10,30,KA,103857,7-11 ST750 SOLDADO MABINI,15,73,36,3,,14.574561,120.982604,"494 Soldado St, Ermita, Manila, 1000 Metro Manila, Philippines"
30-May,10,31,KA,103858,7-11 ST792 STA MONICA,15,92,45,3,,14.575265,120.980524,"668, Ermita, Manila, 1000 Metro Manila, Philippines"
30-May,10,32,KA,103856,7-11 DENR,15,74,36,3,,14.57371,120.981191,"668, Ermita, Manila, 1000 Metro Manila, Philippines"
30-May,10,33,KA,103853,7-11 JP LAUREL MALATE,15,53,24,3,,14.573163,120.982138,"Philippines, Metro Manila, Manila, Malate, Mabini"
30-May,10,34,KA,103845,7-11 HYATT,14,52,24,2,,14.573993,120.983222,"Philippines, Metro Manila, Manila, Malate, Mabini"
30-May,10,35,KA,103864,7-11 UNIVERSITY TOWER ST1490,14,58,28,3,,14.575155,120.986433,"Brgy. 697, Malate, Manila, 1004 Metro Manila, Philippines"
30-May,10,36,KA,103846,7-11 ST432 DAKOTA MANILA,15,77,38,3,,14.572615,120.984891,"Brgy. 698, Malate, Manila, 1004 Metro Manila, Philippines"
30-May,10,37,KA,103860,7-11 ST974 SPLENDOR PLACE,15,60,29,3,,14.571685,120.985898,"974 Nakpil St, Malate, Manila, 1004 Metro Manila, Philippines"
30-May,10,38,KA,103863,7-11 ST1234 ADRIATICO COURTYARD,15,44,22,2,,14.569214,120.986616,"Brgy. 700, Malate, Manila, 1004 Metro Manila, Philippines"
30-May,10,39,KA,103862,7-11 ROYAL PLAZA,15,52,22,3,,14.570981,120.987927,"1906 L. M. Guerrero, Malate, Manila, 1004 Metro Manila, Philippines"
30-May,10,40,KA,101212,7-11 PACO 2,13,233,113,6,,14.578662,121.000288,"Paco, Pedro Gil, Paco, Manila, Metro Manila, Philippines"
30-May,10,41,KA,101315,7-11 ST1260 STA ANA - MARKET PLAZA,15,140,68,4,,14.580629,121.012254,"Brgy. 876, Santa Ana, Manila, Metro Manila, Philippines"
30-May,10,42,KA,101352,7-11 ST1665 STA ANA TULAY,15,64,29,3,,14.586975,121.020597,"Brgy. 892, Santa Ana, Manila, Metro Manila, Philippines"
31-May,11,1,KA,100401,7-11 CAINTA,14,153,79,4,,14.586122,121.115399,"601 Ortigas Ave Ext, Cainta, 1900 Rizal, Philippines"
31-May,11,2,KA,106356,7-11 ST2147 MARICK CAINTA,16,73,38,3,,14.583232,121.114686,"Cainta, Rizal, Philippines"
31-May,11,3,KA,109493,7-11 ST2655 CAINTA MUNICIPAL,16,85,44,3,,14.580497,121.115806,"Javier Residence, 104 Bonifacio Ave, Cainta, Rizal, Philippines"
31-May,11,4,KA,100402,7-11 ST126CAINTA PAROLA,16,89,46,3,,14.577,121.116839,"San Andres, Cainta, Rizal, Philippines"
31-May,11,5,KA,108119,7-11 ST2363 ESTRLLA CAINTA,16,107,56,3,,14.573971,121.124705,"San Juan, Cainta, Lalawigan ng Rizal, Philippines"
31-May,11,6,KA,108594,7-11 ST2481 TAYTAY POBLACION,16,104,54,4,,14.570003,121.13164,"Taytay, Rizal, Philippines"
31-May,11,7,KA,107047,7-11 ST1911 DON MARIANO,16,88,46,3,,14.582918,121.126724,"Rosita T. Uy Bldg., Cainta, Rizal, Philippines"
31-May,11,8,KA,100867,7-11 ST1964 TIKLING TAYTAY,16,85,44,3,,14.576734,121.143092,"Taytay, Rizal, Philippines"
31-May,11,9,KA,100823,7-11 ST1769 SM TAYTAY,16,82,43,3,,14.565901,121.139726,"SM City Taytay, Taytay, Rizal, Philippines"
31-May,11,10,KA,100453,7-11 TAYTAY,16,110,57,4,,14.559089,121.136089,"Jollibee, Taytay, Rizal, Philippines"
31-May,11,11,KA,100858,7-11 ST1698 SEA OIL TAYTAY,16,168,87,5,,14.549436,121.140393,"Taytay, Rizal, Philippines"
31-May,11,12,KA,100829,7-11 ST1831 CPI ANGONO,16,93,48,3,,14.536344,121.150085,"Angono, Rizal, Philippines"
31-May,11,13,KA,100640,7-11 ST922 ANGONO MEDICS,16,121,63,4,,14.531073,121.153203,"Angono, Rizal, Philippines"
31-May,11,14,KA,100686,7-11 ST1242 ANGONO 4,16,81,42,3,,14.526315,121.153026,"Angono, Rizal, Philippines"
31-May,11,15,KA,100446,7-11 ST194 ANGONO,16,59,29,3,,14.523639,121.152989,"Balite, Quezon Ave, Angono, Lalawigan ng Rizal, Philippines"
31-May,11,16,KA,100590,7-11 ANGONO 2,15,137,71,4,,14.526288,121.157841,"Angono, Rizal, Philippines"
31-May,11,17,KA,100729,7-11 ST1130 BINANGONAN 4,16,80,42,3,,14.513373,121.163009,"Tayuman, Binangonan, Rizal, Philippines"
31-May,11,18,KA,112435,7-11 ST2787 BILIBIRAN BINANGONAN,16,153,79,4,,14.499,121.17363,"Binangonan, Rizal, Philippines"
31-May,11,19,KA,100503,7-11 ST387 BINANGONAN 2,16,68,35,3,,14.493531,121.180292,"Binangonan, Rizal, Philippines"
31-May,11,20,KA,112969,7-11 ST2686 DARANGAN,16,135,70,4,,14.490945,121.183366,"Binangonan, Rizal, Philippines"
31-May,11,21,KA,100671,7-11 ST1130 BINANGONAN 3,16,97,50,3,,14.483059,121.187082,"1023 Manila E Rd, Binangonan, 1940 Rizal, Philippines"
31-May,11,22,KA,100465,7-11 ST249 BINANGONAN,16,79,41,3,,14.464548,121.192211,"Binangonan, Rizal, Philippines"
31-May,11,23,KA,106678,7-11 ST1725 BINANGONAN TRIANGLE,16,122,63,4,,14.475889,121.200635,"Binangonan, Rizal, Philippines"
31-May,11,24,KA,112437,7-11 ST2403 CARDONA,16,164,85,4,,14.485852,121.229225,"Cardona, Rizal, Philippines"
31-May,11,25,KA,100727,7-11 MORONG POBLACION,16,89,46,3,,14.515321,121.238945,"Morong, Rizal, Philippines"
31-May,11,26,KA,100615,7-11 ST784 TERESA,16,184,95,5,,14.558356,121.210522,"Barangay San Gabriel, Teresa, Rizal, Philippines"
31-May,11,27,KA,108179,7-11 ST2413 DALIG ANTIPOLO,16,101,52,3,,14.577518,121.18841,"San Jose, Padilla, Antipolo, Rizal, Philippines"
31-May,11,28,KA,108642,7-11 ST2463 MAIA ALTA,16,106,55,3,,14.566963,121.188191,"Dalig, Padilla, Antipolo, Rizal, Philippines"
31-May,11,29,KA,100654,7-11 ST995 PINES CITY,16,82,42,3,,14.566597,121.181302,"San Roque, Antipolo, Rizal, Philippines"
31-May,11,30,KA,100824,7-11 ST1881 ANTIPOLO CIRCLE,16,148,77,4,,14.58105,121.1798,"Dalig, Padilla, Antipolo, Rizal, Philippines"
31-May,11,31,KA,100399,7-11 ANTIPOLO 1,16,88,46,3,,14.580978,121.175911,"RC & Sons Commercial Building, L. Sumulong Memorial Circle, Antipolo, 1870 Rizal, Philippines"
31-May,11,32,KA,109256,7-11 ST2381 MARIGMAN ANTIPOLO,16,131,68,4,,14.574486,121.17078,"San Roque, Antipolo, Rizal, Philippines"
31-May,11,33,KA,100627,7-11 ST2413 ANTIPOLO 3 - DALIG,16,125,65,4,,14.582984,121.168914,"San Roque, Antipolo, Rizal, Philippines"
31-May,11,34,KA,100400,7-11 ST75 ANTIPOLO CHURCH,16,148,77,4,,14.587806,121.175227,"Dela Paz, Padilla, Antipolo, Rizal, Philippines"
31-May,11,35,KA,109718,7-11 ST2678 EMPRESS ANTIPOLO,16,180,93,5,,14.597487,121.193872,"San Isidro, Padilla, Antipolo, 1870 Rizal, Philippines"
31-May,11,36,KA,109316,7-11 ST2522 TAKTAK ANTIPOLO,16,85,44,4,,14.594118,121.171591,"Dela Paz, Padilla, Antipolo, Rizal, Philippines"
31-May,13,1,KA,108439,7-11 ST2478 81 XAVIER,16,57,44,3,,14.604106,121.038718,"Saint Francis Condominium, 83, San Juan, 1503 Metro Manila, Philippines"
31-May,13,4,KA,100436,7-11 ST166 PHILCOPY,24,75,58,4,,14.594602,121.05627,"Wack-Wack Greenhills, Mandaluyong, Metro Manila, Philippines"
31-May,13,2,KA,100731,7-11 ST1331 BDO GREENHILLS,24,41,31,3,,14.602753,121.044906,"Service Rd, San Juan, Metro Manila, Philippines"
31-May,13,3,KA,100539,7-11 WILSON,23,72,56,3,,14.60053,121.047739,"Greenhills, San Juan, Metro Manila, Philippines"
31-May,13,5,KA,100594,7-11 CARDINAL SANTOS MEDICAL CEN,24,71,55,3,,14.598387,121.045749,"Greenhills, San Juan, Metro Manila, Philippines"
31-May,13,6,KA,100715,7-11 ST1325 WILSON ABAD SANTOS,24,59,29,3,,14.597666,121.038447,"Little Baguio, San Juan, Metro Manila, Philippines"
31-May,13,7,KA,108074,7-11 ST2339 P GUEVARRA 2,15,91,70,3,,14.604759,121.033165,"P.Guevara Street, San Juan, Metro Manila, Philippines"
31-May,13,8,KA,112965,7-11 ST2862 ARLINGTON,24,89,46,3,,14.607436,121.017599,"Doña Imelda, Quezon City, Metro Manila, Philippines"
31-May,13,9,KA,100638,7-11 ST855 UERM,16,108,53,4,,14.60802,121.021396,"Doña Imelda, Quezon City, Metro Manila, Philippines"
31-May,13,10,KA,100740,7-11 PRINCETON RESIDENCE,15,79,41,3,,14.612983,121.033616,"680 R-6, New Manila, Quezon City, Metro Manila, Philippines"
31-May,13,11,KA,100794,7-11 ST1544 GILMORE,16,53,28,3,,14.613637,121.034938,"Admin Building, New Manila, Quezon City, Metro Manila, Philippines"
31-May,13,13,KA,108444,7-11 ST2384 CPI KAMUNING,16,71,37,3,,14.628332,121.038301,"Kamuning, Quezon City, Metro Manila, Philippines"
31-May,13,14,KA,100477,7-11 ST281 TOMAS MORATO,16,54,42,3,,14.629145,121.034423,"Sacred Heart, Diliman, Quezon City, Metro Manila, Philippines"
31-May,13,15,KA,100826,7-11 ST1801 SCOUT TUASON,24,74,57,3,,14.629557,121.032019,"86 Sct. Castor St, Diliman, Quezon City, 1103 Metro Manila, Philippines"
31-May,13,12,KA,109157,7-11 ST1636 WINLAND TOWER,24,70,36,3,,14.625374,121.033121,"JQ Quinto Building, Tomas Morato Ave, Quezon City, Metro Manila, Philippines"
31-May,13,18,KA,100472,7-11 ST241 ST.LUKES,16,74,57,3,,14.621488,121.0239,"Damayang Lagi, New Manila, Quezon City, Metro Manila, Philippines"
31-May,13,19,KA,109156,7-11 ST2623 TRINITY E-ROD,24,102,53,3,,14.620996,121.022146,"Damayang Lagi, New Manila, Quezon City, Metro Manila, Philippines"
31-May,13,20,KA,100680,7-11 ST1166DELOS SANTOS HOSPITAL,16,84,44,3,,14.619825,121.017704,"Kalusugan, Quezon City, Metro Manila, Philippines"
31-May,13,21,KA,100819,7-11 ST1727 FE DEL MUNDO HOSPITAL,16,125,97,4,,14.620967,121.009518,"8 Cardiz, Cardiz, Quezon City, Metro Manila, Philippines"
31-May,13,22,KA,100781,7-11 ST1324 DONA AURORA E.ROD,24,78,40,3,,14.618376,121.010065,"Doña Aurora, Quezon City, Metro Manila, Philippines"
31-May,13,23,KA,100621,7-11 ST799 DONA AURORA (MILAN PROP),16,60,31,3,,14.614779,121.009826,"Doña Aurora, Quezon City, Metro Manila, Philippines"
31-May,13,24,KA,100414,7-11 ST104 GALAS,16,128,66,4,,14.612218,121.008604,"San Isidro, Quezon City, Metro Manila, Philippines"
31-May,13,25,KA,101311,7-11 ST1112 MACEDA,16,104,54,3,,14.615004,120.997606,"913 A M Maceda, Sampaloc, Manila, 1008 Metro Manila, Philippines"
31-May,13,26,KA,101193,7-11 ST33 DAPITAN,16,158,82,4,,14.617624,120.995019,"Brgy. 520, Sampaloc, Manila, Metro Manila, Philippines"
31-May,13,27,KA,100629,7-11 ST835 BANAWE 2,16,85,44,3,,14.62384,121.007828,"Banawe, Quezon City, Metro Manila, Philippines"
31-May,13,28,KA,100853,7-11 ST1990 PAZ ARANETA,16,91,47,3,,14.624633,121.015271,"Tatalon, Quezon City, Metro Manila, Philippines"
31-May,13,29,KA,100442,7-11 ST12 ROCES,16,47,24,2,,14.632971,121.020182,"Don Alejandro Roces avenue, Quezon City, Metro Manila, Philippines"
31-May,13,30,KA,100669,7-11 ST985 CAPITOL MED,16,70,54,3,,14.634424,121.022987,"Paligsahan, Diliman, Quezon City, Metro Manila, Philippines"
31-May,13,31,KA,100628,7-11 ST836 TORRE VENECIA,24,61,32,3,,14.635658,121.029187,"Laging Handa, Diliman, Quezon City, Metro Manila, Philippines"
31-May,13,32,KA,100587,7-11 SCOUT TOBIAS,16,80,41,3,,14.635558,121.030984,"Laging Handa, Diliman, Quezon City, Metro Manila, Philippines"
31-May,13,33,KA,100602,7-11 ST755 SUNSHINE PLAZA,16,45,23,5,,14.637509,121.027885,"Sunsitive Boulevard Plaza, 1328 Quezon Ave, Diliman South Triangle, Quezon City, 1103 Metro Manila, Philippines"
31-May,13,34,KA,100803,7-11 ST1708 COHER CENTER,16,48,37,3,,14.639049,121.029829,"South Triangle, Diliman, Quezon City, Metro Manila, Philippines"
31-May,13,35,KA,100751,7-11 M PLACE ST1443,24,95,49,3,,14.638937,121.033261,"South Triangle, Diliman, Quezon City, Metro Manila, Philippines"
31-May,13,36,KA,113324,7-11 ST2891 WILSON SAN JUAN,16,183,94,5,,14.597566,121.040139,"Greenhills, San Juan, Metro Manila, Philippines"
31-May,13,37,KA,113405,7-11 ST2881 ABS-CBN 2,16,171,67,5,,14.639806,121.035194,"4/F Eugenio Lopez Jr. Communication Center ABS CBN Compound Mother Ignacia Ave, Diliman, Quezon City, Metro Manila, Philippines"
22-May,13,23,KA,100618,7-11 ST819 ST. LUKES,12,46,12,2,,14.622287,121.023933,"281 Sta. Ignacia, Quezon City, Metro Manila, Philippines"
21-May,13,17,KA,100618,7-11  ST819 ST. LUKES,8,68,24,4,,14.622287,121.023933,"281 Sta. Ignacia, Quezon City, Metro Manila, Philippines"
19-May,13,16,KA,100773,7-11 CPI E.ROD ST1502,11,30,3,2,,14.623173,121.028379,"Kristong Hari, Quezon City, Metro Manila, Philippines"
31-May,14,1,KA,100421,7-11 GUADALUPE 2 (Yabut),3,113,59,4,,14.559076,121.046234,"Guadalupe Nuevo, Makati, Metro Manila, Philippines"
31-May,14,2,KA,100771,7-11 ST1621 KALAYAAN,16,102,53,4,,14.558276,121.045772,"9641 Kalayaan Ave, Makati, 1212 Metro Manila, Philippines"
31-May,14,4,KA,100517,7-11 ST447 KIMSTONE,16,114,88,4,,14.559607,121.040798,"Pinagkaisahan, Makati, Metro Manila, Philippines"
31-May,14,5,KA,101511,7-11 ZAPANTA,24,53,27,3,,14.560722,121.043144,"DZPS 1206 AM, MMDA Building, Orense, Makati, 1212 Kalakhang Maynila, Philippines"
31-May,14,6,KA,100441,7-11 GUADALUPE 1,16,38,20,2,,14.564944,121.045298,"Guadalupe Nuevo, Makati, Metro Manila, Philippines"
31-May,14,7,KA,109789,7-11 ST1523GUADALUPE 5,16,72,38,3,,14.567743,121.046904,"Guadalupe Nuevo, Makati, Metro Manila, Philippines"
31-May,14,8,KA,100468,7-11 ST244 GUADA 3,16,47,24,2,,14.565003,121.045849,"Guadalupe Nuevo, Makati, Metro Manila, Philippines"
31-May,14,9,KA,100566,7-11 GUADA 4 (KIMSTON PLAZA),16,85,44,3,,14.565357,121.046492,"8820 P.Burgos, Makati, 1212 Kalakhang Maynila, Philippines"
31-May,14,10,KA,103830,7-11 ST1298 CEO FIATS,16,39,31,3,,14.556365,121.034911,"Bel-Air, Makati, Metro Manila, Philippines"
31-May,14,11,KA,103823,7-11 SM CYBER TWO,24,49,26,2,,14.555854,121.034543,"Bel-Air, Makati, Metro Manila, Philippines"
31-May,14,12,KA,103821,7-11 SM CYBER 1,16,102,50,3,,14.56078,121.02957,"98 Sen. Gil J. Puyat Ave, Makati, 1200 Metro Manila, Philippines"
31-May,14,13,KA,103817,7-11 TROPICAL,15,67,35,3,,14.561725,121.028188,"365 Makati Ave, Makati, 1200 Metro Manila, Philippines"
31-May,14,14,KA,103832,7-11 BEL AIR SOHO,16,51,26,2,,14.562927,121.029152,"5007 Badajos, Makati, Metro Manila, Philippines"
31-May,14,15,KA,100443,7-11 ST187 VIRRA 1,16,95,46,3,,14.563365,121.02939,"Poblacion, Makati, Metro Manila, Philippines"
31-May,14,16,KA,100694,7-11 ST1238 MPT SUITES,15,42,22,3,,14.564129,121.030339,"Poblacion, Makati, Metro Manila, Philippines"
31-May,14,17,KA,103815,7-11 INSULAR BAKERY,16,141,73,4,,14.564632,121.031137,"Casa Nene, San Lucas, Makati, Metro Manila, Philippines"
31-May,14,18,KA,103833,7-11 ST1077 E. LUXURY ONE,16,74,38,3,,14.566498,121.031107,"Poblacion, Makati, Metro Manila, Philippines"
31-May,14,19,KA,103826,7-11 ST745 ANTEL SPA RESIDENCES,16,98,51,4,,14.566257,121.029058,"4754 Salamanca, Makati, 1208 Kalakhang Maynila, Philippines"
31-May,14,20,KA,103643,7-11 ST1848 KNIGHTS BRIDGE,16,71,55,3,,14.566996,121.027727,"Poblacion, Makati, Metro Manila, Philippines"
31-May,14,21,KA,107751,7-11 ST2131 SALAMANCA,24,53,28,3,,14.565288,121.028719,"The Gramercy Residences, Makati, Metro Manila, Philippines"
31-May,14,22,KA,108204,7-11 ST2315 LOURDES SUITES,16,39,20,2,,14.564516,121.029138,"Power Square Internet Solution Corporation, Constellation, Makati, Metro Manila, Philippines"
31-May,14,23,KA,103824,7-11 MAKATI AVENUE,16,57,29,3,,14.564073,121.028906,"Power Square Internet Solution Corporation, Constellation, Makati, Metro Manila, Philippines"
31-May,14,24,KA,106589,7-11 ST2143 JUPITER 2,16,43,33,4,,14.5628,121.026299,"120 Jupiter, Makati, 1209 Metro Manila, Philippines"
31-May,14,25,KA,100555,7-11 N GARCIA,24,80,62,3,,14.562959,121.022525,"235 Nicanor Garcia, Makati, Metro Manila, Philippines"
31-May,14,26,KA,103825,7-11 WELDING BLDG,24,54,35,3,,14.562959,121.022525,"235 Nicanor Garcia, Makati, Metro Manila, Philippines"
31-May,14,27,KA,103819,7-11 ST401 PHILCOM,20,54,28,2,,14.557635,121.023264,"Paseo Center - Sedeno Pedestrian Underpass, Makati, Metro Manila, Philippines"
31-May,14,28,KA,100476,7-11 ST278 SAGUITARIUS,16,71,55,3,,14.561009,121.025593,"109 H.V. Dela Costa, Makati, Metro Manila, Philippines"
31-May,14,29,KA,103831,7-11 ST1168 ACT TOWER,24,42,22,2,,14.561576,121.022467,"Swissair, 2nd Floor Country Space 1 Building, Sen. Gil Puyat Avenue, Salcedo Village, Makati, 1227 Metro Manila, Philippines"
31-May,14,30,KA,113004,7-11 GLOBAL ENTERPRISE,16,51,26,2,,14.56117,121.020876,"The World Centre, Makati, Metro Manila, Philippines"
31-May,14,31,KA,103820,7-11 TORDESILLAS,16,39,20,2,,14.560605,121.020509,"Bel-Air, Makati, Metro Manila, Philippines"
31-May,14,32,KA,103827,7-11 ST869 FINMAN CENTRE,16,43,22,2,,14.560918,121.024156,"3675 Bautista, Makati, Kalakhang Maynila, Philippines"
31-May,14,33,KA,103829,7-11 ST1224 V. CORPORATE CTR.,16,72,37,3,,14.560126,121.024631,"123 L.P Leviste, Makati, Metro Manila, Philippines"
31-May,14,34,KA,100489,7-11 ST311 PDCP,16,58,30,2,,14.559799,121.01984,"Bel-Air, Makati, Metro Manila, Philippines"
31-May,14,35,KA,100478,7-11 RCBC,16,90,70,4,,14.560887,121.016959,"Tower 2, Makati, Metro Manila, Philippines"
31-May,14,36,KA,100454,7-11 ST229 CITYLAND 10,24,44,34,3,,14.560745,121.017568,"Tower 2, Makati, Metro Manila, Philippines"
31-May,14,37,KA,100487,7-11 AYALA FGU,24,54,42,3,,14.559865,121.017588,"Rufino Tower, Ayala Ave, Makati, Metro Manila, Philippines"
31-May,14,38,KA,100463,7-11 ST251 NOBEL,24,51,39,3,,14.559842,121.018939,"112 Valero, Makati, 1227 Kalakhang Maynila, Philippines"
31-May,14,39,KA,100703,7-11 139 CORPORATE CENTER,24,40,21,2,,14.558179,121.021903,"LPL Plaza, Makati, Metro Manila, Philippines"
31-May,14,40,KA,100451,7-11 ST213 PARKVEW,16,53,28,2,,14.558598,121.022604,"142 Valero, Makati, 1227 Kalakhang Maynila, Philippines"
31-May,14,41,KA,100550,7-11 TARAG,16,51,38,3,,14.550904,121.020219,"9111 Antonio Arnaiz Ave, Makati, 1228 Metro Manila, Philippines"
31-May,14,42,KA,103784,7-11 ST1945 ONE CORP PLAZA,23,54,42,3,,14.551288,121.017251,"845 Antonio Arnaiz Ave, Makati, Metro Manila, Philippines"
31-May,14,43,KA,100455,7-11 ST1945 CORPORATE,24,48,38,3,,14.551102,121.018931,"Legazpi Village, Makati, Metro Manila, Philippines"
31-May,14,44,KA,100622,7-11 ST804 AMORSOLO,24,44,34,2,,14.552864,121.01535,"146 Amorsolo Street, Legazpi Village, Makati, 1229 Kalakhang Maynila, Philippines"
31-May,14,45,KA,100553,7-11 HERCO,24,42,33,3,,14.551836,121.016873,"119b Jimenez, Legazpi Village, Makati, Kalakhang Maynila, Philippines"
31-May,14,46,KA,100704,7-11 ST1278 ETON GREENBELT PARKVIEW,24,70,55,5,,14.553515,121.017073,"Greenbelt Radissons, 106 Aguirre st., Aguirre, Legazpi Village, Makati, Kalakhang Maynila, Philippines"
31-May,14,47,KA,108203,7-11 ST2336 CHARTER HOUSE,24,49,25,2,,14.553682,121.021291,"1 Greenbelt Dr, Legazpi Village, Makati, Metro Manila, Philippines"
31-May,14,48,KA,100581,7-11 BSA TOWER,16,51,40,3,,14.553883,121.022234,"106 Legazpi Street, Legazpi Village, Makati, 1229 Kalakhang Maynila, Philippines"
31-May,14,49,KA,103783,7-11 ST1338 PRINCE PLAZA 2,24,59,46,3,,14.55412,121.022685,"Prince Plaza II, Legazpi Village, Makati, Metro Manila, Philippines"
31-May,14,50,KA,108525,7-11 ST2405 LV LOCSIN,24,64,49,3,,14.554577,121.023756,"1516 Legazpi Street, Legazpi Village, Makati, 1228 Kalakhang Maynila, Philippines"
31-May,14,51,KA,100486,7-11 ST303 ASIAN MANSION,24,52,27,3,,14.555157,121.021104,"The Shang Grand Tower, Legazpi Village, Makati, Metro Manila, Philippines"
31-May,14,52,KA,100795,7-11 ST1565 VA RUFINO,16,58,45,3,,14.556671,121.017882,"Ormaza, Legazpi Village, Makati, Metro Manila, Philippines"
31-May,14,53,KA,100770,7-11 SOMERSET,24,42,32,3,,14.556079,121.025924,"Urdaneta, Makati, Metro Manila, Philippines"
19-May,14,3,KA,100542,7-11 HARVARD EDSA,24,0,0,0,,14.558858,121.040031,"Pan-Philippine Hwy, Makati, Metro Manila, Philippines"
31-May,15,1,KA,100808,7-11 ST1763 PHOENIX AMANG RODRIGUEZ,2,72,37,3,,14.600053,121.092152,"Manggahan, Pasig, Metro Manila, Philippines"
31-May,15,2,KA,109786,7-11 ST2546 TRAMO PASIG,16,102,53,4,,14.584096,121.101729,"Santa Lucia, Pasig, Metro Manila, Philippines"
31-May,15,3,KA,107283,7-11 ST2320 DE CASTRO PASIG,16,97,51,4,,14.587863,121.097209,"Santa Lucia, Pasig, Metro Manila, Philippines"
31-May,15,4,KA,100563,7-11 LIFE HOMES,16,236,122,6,,14.590158,121.094949,"Rosario, Pasig, Metro Manila, Philippines"
31-May,15,5,KA,100557,7-11 ROSARIO 2,16,70,37,3,,14.590851,121.086717,"Rosario, Pasig, Metro Manila, Philippines"
31-May,15,6,KA,107045,7-11 ST2245 SORRENTO,16,133,69,4,,14.587055,121.088633,"15 C. Raymundo Ave, Pasig, 1609 Metro Manila, Philippines"
31-May,15,7,KA,100796,7-11 ST1555 CPI C. RAYMUNDO,16,93,48,3,,14.585427,121.088098,"Jemco Bldg., Bernal Street, Pasig, Metro Manila, Philippines"
31-May,15,8,KA,100761,7-11 ST1193 SIXTO AVENUE,16,81,42,3,,14.586393,121.084531,"Rosario, Pasig, Metro Manila, Philippines"
31-May,15,10,KA,100561,7-11 SIXTO A AVE,16,89,69,3,,14.579484,121.082661,"Maybunga, Pasig, Metro Manila, Philippines"
31-May,15,11,KA,100549,7-11 C. RAYMUNDO,24,106,55,3,,14.575929,121.084833,"Maybunga, Pasig, Metro Manila, Philippines"
31-May,15,12,KA,108645,7-11 ST2321 SACRED HEART PASIG,16,102,53,4,,14.572303,121.088151,"Maybunga, Pasig, Metro Manila, Philippines"
31-May,15,13,KA,107048,7-11 ST1986 EVERGREEN,16,66,34,3,,14.569028,121.084092,"Casa Enrica, Mercedes Ave, Pasig, Metro Manila, Philippines"
31-May,15,14,KA,100583,7-11 MERCEDES AVENUE,16,89,46,3,,14.569673,121.081876,"1354 C. Raymundo Ave, Pasig, Metro Manila, Philippines"
31-May,15,15,KA,112966,7-11 SAGAD PASIG,16,165,85,4,,14.566633,121.0793,"Sagad, Pasig, Metro Manila, Philippines"
31-May,15,16,KA,100407,7-11 ST76 SIXTO ANTONIO,16,107,80,4,,14.56617,121.076092,"Caniogan, Pasig, Metro Manila, Philippines"
31-May,15,17,KA,100466,7-11 ST248 PASIG MEGA,23,200,104,5,,14.558276,121.082973,"San Nicolas, Pasig, Metro Manila, Philippines"
31-May,15,18,KA,100620,7-11 ST802 MARKET AVENUE,16,128,66,4,,14.563707,121.08501,"Palatiw, Pasig, Metro Manila, Philippines"
31-May,15,19,KA,106357,7-11 ST2100 F. MANALO PASIG,16,59,31,3,,14.562072,121.081467,"Pasig, Metro Manila, Philippines"
31-May,15,20,KA,100834,7-11 ST1783 PASIG CHURCH,16,65,34,3,,14.561218,121.07762,"Andres Bonifacio Monument, Pasig, Metro Manila, Philippines"
31-May,15,21,KA,100406,7-11 PASIG,16,100,74,4,,14.560947,121.076721,"Andres Bonifacio Monument, Pasig, Metro Manila, Philippines"
31-May,15,22,KA,100688,7-11 ST1262 CPI C5 UGONG,23,51,27,2,,14.571187,121.07118,"Ugong, Pasig, Metro Manila, Philippines"
31-May,15,23,KA,106089,7-11 ST1941 SHINE RESIDENCES,16,46,24,2,,14.582156,121.065299,"Ugong, Pasig, Metro Manila, Philippines"
31-May,15,24,KA,100730,7-11 MARCO POLO,16,56,44,3,,14.587455,121.063217,"San Antonio, Pasig, Kalakhang Maynila, Philippines"
31-May,15,25,KA,100714,7-11 ST1341 AIC EMPIRE SAPPHIRE,24,56,33,3,,14.589869,121.061148,"San Antonio, Pasig, Kalakhang Maynila, Philippines"
31-May,15,26,KA,100488,7-11 ST309 AIC GALLERIA,18,99,58,4,,14.589615,121.06076,"AIC CrowneTower, San Antonio, Pasig, Metro Manila, Philippines"
31-May,15,27,KA,100508,7-11 ST421 AIC GOLD,18,61,32,3,,14.588718,121.061782,"35 Garnet Rd, San Antonio, Pasig, 1605 Metro Manila, Philippines"
31-May,15,28,KA,107051,7-11 ST2192 ORTIGAS PARK,16,65,34,3,,14.586768,121.061055,"Ortigas Park Walkway, San Antonio, Pasig, Kalakhang Maynila, Philippines"
31-May,15,29,KA,100521,7-11 WYNSUM,16,54,42,3,,14.585898,121.061071,"22 Ruby Rd, San Antonio, Pasig, 1605 Metro Manila, Philippines"
31-May,15,30,KA,100475,7-11 ST237 ORIENT SQUARE,24,46,36,3,,14.58531,121.061059,"24 Ruby Rd, San Antonio, Pasig, 1605 Metro Manila, Philippines"
31-May,15,31,KA,103671,7-11 ST1971 ST. FRANCIS,24,57,44,3,,14.584646,121.058378,"Ortigas Center, Pasig, Metro Manila, Philippines"
31-May,15,32,KA,100724,7-11 ST1342 BSA TWIN TOWERS,24,48,25,3,,14.586072,121.058033,"St. Francis Towers, Bank Dr, Ortigas Center, Mandaluyong, Metro Manila, Philippines"
31-May,15,33,KA,100798,7-11 ST1607 AMETHYST DRIVE,16,52,27,3,,14.582132,121.060745,"604 Amethyst St, Ortigas Center, Pasig, 1605 Metro Manila, Philippines"
31-May,15,34,KA,100497,7-11 ST350 PACIFIC CENTER,16,63,49,3,,14.581176,121.060187,"604 Amethyst St, Ortigas Center, Pasig, 1605 Metro Manila, Philippines"
31-May,15,35,KA,107049,7-11 ST2273 ABERLANDO PLAZA,24,65,50,3,,14.583768,121.061839,"Jade Dr, San Antonio, Pasig, Metro Manila, Philippines"
31-May,15,36,KA,100481,7-11 ST285 EMERALD,24,48,36,3,,14.586452,121.061846,"DWRX-FM 93.1 Transmitter, Emerald to Garnet Passage, San Antonio, Pasig, Metro Manila, Philippines"
31-May,15,37,KA,100490,7-11 ST318 PEARL DRIVE,23,94,73,4,,14.582109,121.060958,"511 Pearl Dr, San Antonio, Pasig, 1605 Metro Manila, Philippines"
31-May,15,38,KA,100513,7-11 ST455 PEARL DRIVE 2,24,178,81,5,,14.581845,121.061019,"511 Pearl Dr, San Antonio, Pasig, 1605 Metro Manila, Philippines"
31-May,15,39,KA,106646,7-11 ST2129 TEKTITE TOWER,14,93,60,4,,14.582854,121.062215,"1906 Exchange Rd, Ortigas Center, Pasay City, 1605 Metro Manila, Philippines"
31-May,16,1,KA,103675,7-11 GRAND RIVIERA SUITES ST1422,20,42,22,2,,14.576564,120.979662,"1322 Golden Empire Tower, Ermita, Manila, 1000 Metro Manila, Philippines"
31-May,16,2,KA,107182,7-11 ST2226 MABINI 3,16,61,32,2,,14.578463,120.980979,"667, Ermita, Manila, 1000 Metro Manila, Philippines"
31-May,16,3,KA,103873,7-11 MH DEL PILAR,16,64,33,3,,14.578838,120.979506,"1129 M. H. Del Pilar St, Ermita, Manila, 1000 Metro Manila, Philippines"
31-May,16,4,KA,103878,7-11 ST312 US EMBASSY,16,36,19,2,,14.579103,120.978283,"Luneta Hotel, Ermita, Manila, 1000 Metro Manila, Philippines"
31-May,16,5,KA,103893,7-11 ETON BAYPARK MANILA ST1416,16,45,23,2,,14.579945,120.977893,"444 Kalaw Ave, Ermita, Manila, 1000 Metro Manila, Philippines"
31-May,16,6,KA,103886,7-11 MAYFAIR TOWER,16,34,17,2,,14.579983,120.98044,"1114 A. Mabini St, Ermita, Manila, 1000 Metro Manila, Philippines"
31-May,16,7,KA,103875,7-11 ST168 KIMMEE,15,88,46,3,,14.581056,120.979811,"Puso ng Maynila Building, United Nations Ave, Ermita, Manila, 1000 Metro Manila, Philippines"
31-May,16,8,KA,103876,7-11 OROSA,16,53,28,3,,14.581841,120.981417,"Manila Pavilion, Ermita, Manila, 1000 Metro Manila, Philippines"
31-May,16,9,KA,103883,7-11 TIMES PLAZA,16,76,35,3,,14.582452,120.984358,"332 Taft Ave, Ermita, Manila, 1000 Metro Manila, Philippines"
31-May,16,10,KA,103889,7-11 SOTTO (EX MS),14,88,46,3,,14.581871,120.986265,"Sotto-Yuvienco Building, Paco, Manila, Metro Manila, Philippines"
31-May,16,11,KA,103874,7-11 UN AVENUE,16,59,31,2,,14.58286,120.986143,"Brgy. 674, Paco, Manila, Metro Manila, Philippines"
31-May,16,12,KA,103891,7-11 ST1290 NATIVIDAD LOPEZ,16,107,55,4,,14.590474,120.983779,"659-A, Ermita, Manila, Metro Manila, Philippines"
31-May,16,13,KA,103887,7-11 ST770 MANILA CITY HALL,16,67,35,3,,14.589061,120.982346,"350 A Villegas St, Ermita, Manila, 1000 Metro Manila, Philippines"
31-May,16,14,KA,103877,7-11 ST239 PARK AND RIDE,16,110,57,4,,14.593321,120.980281,"Lawton, Ermita, Manila, 1000 Metro Manila, Philippines"
31-May,16,15,KA,103882,7-11 ST458 SAN MARCELINO,16,80,42,3,,14.588673,120.984763,"663, Ermita, Manila, Metro Manila, Philippines"
31-May,16,16,KA,103807,7-11 LEGARDA ARLEGUI ST1481,16,106,55,4,,14.59658,120.989769,"389, Quiapo, Manila, Metro Manila, Philippines"
31-May,16,17,KA,103789,7-11 ST226 LEGARDA,16,63,33,3,,14.599042,120.990563,"Chino Roces Monument, Mendiola St, San Miguel, Manila, 1001 Metro Manila, Philippines"
31-May,16,18,KA,103806,7-11 SAN BEDA,16,46,24,2,,14.598514,120.993566,"638, San Miguel, Manila, Metro Manila, Philippines"
31-May,16,19,KA,101195,7-11 ST4 NAGTAHAN,16,43,23,2,,14.60035,120.999377,"Brgy. 634, Santa Mesa, Manila, Metro Manila, Philippines"
31-May,16,20,KA,103791,7-11 ST332 LEGARDA 2,16,120,58,4,,14.600712,120.995928,"Five Star, Legarda St, 410, Manila, 1008 Metro Manila, Philippines"
31-May,16,21,KA,103808,7-11 UNIVERSITY OF MANILA ST1513,15,50,26,2,,14.60296,120.99089,"Brgy. 400, Sampaloc, Manila, Metro Manila, Philippines"
31-May,16,22,KA,103796,7-11 GASTAMBIDE,16,51,27,2,,14.602289,120.99046,"UE College of Arts and Sciences Building, Sampaloc, Manila, Metro Manila, Philippines"
31-May,16,23,KA,103798,7-11 EARNSHAW (401 BLDG),16,39,20,2,,14.602065,120.992722,"Legarda St & Figueras St, corner, Old Sta. Mesa St, Sampaloc, Manila, Metro Manila, Philippines"
31-May,16,24,KA,103811,7-11 ST1682 BUSTILLOS,16,55,29,2,,14.603592,120.993037,"Brgy. 401, Sampaloc, Manila, Metro Manila, Philippines"
31-May,16,25,KA,103797,7-11 NATIONAL UNIVERSITY,16,42,22,2,,14.604062,120.994865,"Brgy. 407, Sampaloc, Manila, Metro Manila, Philippines"
31-May,16,26,KA,109259,7-11 ST2563 CAYCO,16,77,38,3,,14.607331,120.992874,"Autobus, Valencia, Sampaloc, Manila, Metro Manila, Philippines"
31-May,16,27,KA,101307,7-11 ST1198 S.H. LOYOLA,15,81,42,3,,14.608758,120.993995,"1194 Sergio H Loyola St, Sampaloc, Manila, 1015 Metro Manila, Philippines"
31-May,16,28,KA,101327,7-11 ST1603 S.H. LOYOLA 2,16,57,30,2,,14.61061,120.996296,"1736 Loyola St, Sampaloc, Manila, Metro Manila, Philippines"
31-May,16,29,KA,108664,7-11 ST2451 FAJARDO,16,128,66,7,,14.608959,120.99661,"Brgy. 449, Sampaloc, Manila, Metro Manila, Philippines"
31-May,16,30,KA,101316,7-11 G. TUAZON 3,16,121,63,4,,14.606535,121.002592,"Brgy. 576, Sampaloc, Manila, Metro Manila, Philippines"
31-May,16,31,KA,103793,7-11 G TUAZON 2,16,113,59,3,,14.60882,121.00384,"1048 G. Tuazon St. Sampaloc, 567, Manila, 1008 Metro Manila, Philippines"
31-May,16,32,KA,101337,7-11 ST1735 LRT V. MAPA,16,67,35,3,,14.603468,121.016678,"V.Mapa, Santa Mesa, Manila, Metro Manila, Philippines"
31-May,16,33,KA,103872,7-11 ST8 ADRIATICO,16,77,40,5,,14.577605,120.981807,"668, Ermita, Manila, 1000 Metro Manila, Philippines"
31-May,16,34,KA,103879,7-11 ST336 PADRE FAURA,16,74,38,3,,14.576764,120.980309,"1322 Golden Empire Tower, Ermita, Manila, 1000 Metro Manila, Philippines"
31-May,16,35,KA,103885,7-11 MANILA EXECUTIVE REGENCY,16,79,41,3,,14.578705,120.98229,"Cityland Manila Executive Regency, 1200 Jorge Bocobo St, Ermita, Manila, 1000 Metro Manila, Philippines"
31-May,16,36,KA,103895,7-11 ST1630 MARIA OROSA 2,16,61,32,2,,14.580326,120.982138,"669, Ermita, Manila, 1000 Metro Manila, Philippines"
31-May,16,37,KA,103896,7-11 ST1841 MARIA OROSA 3,16,63,33,2,,14.579457,120.982611,"1191 Abenida Maria Orosa, Ermita, Maynila, 1000 Kalakhang Maynila, Philippines"
31-May,16,38,KA,107166,7-11 ST2217 PAORE FAURA 2,16,69,36,2,,14.577183,120.980759,"1237 M. H. Del Pilar St, Ermita, Manila, 1000 Metro Manila, Philippines"
31-May,17,1,KA,100768,7--11 THE STRIP MERALCO ST1510,16,65,50,3,,14.58921,121.069001,"Medical City Bus Stop, Pasig, Metro Manila, Philippines"
31-May,17,2,KA,100818,7-11 ST1709 CONECTICUT 2,24,52,41,3,,14.601137,121.054275,"Greenhills, San Juan, Metro Manila, Philippines"
31-May,17,3,KA,100482,7-11 ST301 ANNAPOLIS,24,56,29,2,,14.603857,121.051421,"Greenhills, San Juan, Metro Manila, Philippines"
31-May,17,4,KA,100832,7-11 GOLD LAND TOWER ST1365,16,52,27,3,,14.604568,121.049401,"10 Eisenhower, San Juan, 1504 Metro Manila, Philippines"
31-May,17,5,KA,100540,7-11 MCKINLEY,16,73,57,3,,14.602063,121.046844,"Alcon Laboratories, Inc., Washington, San Juan, Metro Manila, Philippines"
31-May,17,6,KA,100492,7-11 XAVIER,24,72,37,3,,14.604106,121.038718,"Saint Francis Condominium, 83, San Juan, 1503 Metro Manila, Philippines"
31-May,17,7,KA,100800,7-11 ST1656 MAXSTEEL BLDG,16,62,32,2,,14.610011,121.030552,"Milagrosa 1, Milagros, San Juan, Metro Manila, Philippines"
31-May,17,8,KA,100417,7-11 ST158 N. DOMINGO,16,72,37,3,,14.606683,121.024433,"Balong-Bato, San Juan, Metro Manila, Philippines"
31-May,17,9,KA,100813,7-11 ST1622 N.DOMINGO 2,16,132,68,3,,14.604572,121.022613,"102 N Domingo St, San Juan, 1500 Metro Manila, Philippines"
31-May,17,10,KA,101353,7-11 ST1543 JT CENTRALE FUGOSO,16,80,41,3,,14.6073,120.983944,"Brgy. 311, Santa Cruz, Manila, Metro Manila, Philippines"
31-May,17,11,KA,106641,7-11 ST2215 BAMBANG,16,167,86,5,,14.610994,120.984437,"1392 Felix Huertas Rd, Santa Cruz, Manila, Metro Manila, Philippines"
31-May,17,12,KA,101312,7-11 ST1320 CPI TAYUMAN,16,50,26,2,,14.616901,120.985309,"Brgy. 341, Santa Cruz, Manila, Metro Manila, Philippines"
31-May,17,13,KA,101197,7-11 ST86 TAYUMAN,16,144,75,5,,14.616693,120.98297,"1610 Tayuman St, Santa Cruz, Manila, 1003 Metro Manila, Philippines"
31-May,17,14,KA,101214,7-11 ST1925 DOROTEO JOSE,16,154,80,4,,14.605129,120.981803,"Sky Royal Manor, Santa Cruz, Manila, Metro Manila, Philippines"
31-May,17,15,KA,101351,7-11 ST1925 D. JOSE 2,16,82,43,3,,14.605177,120.980728,"1512 Doroteo Jose St, Santa Cruz, Manila, Metro Manila, Philippines"
31-May,17,16,KA,101232,7-11 ST362 T. MAPUA,16,147,76,5,,14.603674,120.980659,"1521 Recto Ave, Santa Cruz, Manila, 1003 Metro Manila, Philippines"
31-May,17,17,KA,101286,7-11 ST988 MS ONGPIN,16,99,51,3,,14.600702,120.980126,"1045 Ongpin St, Santa Cruz, Manila, 1003 Metro Manila, Philippines"
31-May,17,18,KA,101304,7-11 ST1176 BUSTOS (STA. CRUZ),16,40,21,2,,14.599917,120.980896,"Arguelles Building, Rizal Ave, Binondo, Manila, Metro Manila, Philippines"
31-May,17,19,KA,101340,7-11 ESCOLTA TWIN TOWERS ST1527,16,53,28,2,,14.597844,120.978618,"334 Escolta St, Binondo, Manila, 1006 Metro Manila, Philippines"
31-May,17,20,KA,101335,7-11 RIVERVIEW MANSION ST1528,16,28,15,2,,14.59767,120.979276,"291, Binondo, Manila, Metro Manila, Philippines"
31-May,17,21,KA,101264,7-11 BURKE QUINTIN PAREDES,16,38,20,2,,14.597289,120.97642,"National Panasonic, San Vicente St, Binondo, Manila, 1006 Metro Manila, Philippines"
31-May,17,22,KA,101334,7-11 ST1599 ONGPIN 2,16,71,37,3,,14.60017,120.975205,"Imperial Sky Garden Condo Corporation, 707 Ongpin St, Binondo, Manila, 1006 Metro Manila, Philippines"
31-May,17,23,KA,101252,7-11 BINONDO,16,111,57,4,,14.599518,120.973147,"Po Taw Building, Binondo, Manila, Metro Manila, Philippines"
31-May,17,24,KA,101342,7-11 ST1799 NUMANCIA,16,143,74,4,,14.596693,120.972067,"285, San Nicolas, Manila, Metro Manila, Philippines"
31-May,17,25,KA,112441,7-11 ST2616 I PACIFIC RESIDENCES,16,121,62,4,,14.601241,120.970664,"281, San Nicolas, Manila, Metro Manila, Philippines"
31-May,17,26,KA,106639,7-11 ST2183 STO CRISTO RECTO,16,273,141,6,,14.603465,120.968445,"271, San Nicolas, Manila, Metro Manila, Philippines"
31-May,17,27,KA,101322,7-11 JUAN LUNA ST1501,16,83,43,3,,14.604664,120.971033,"Atiya Kaiser Building, Juan Luna St, San Nicolas, Manila, Metro Manila, Philippines"
31-May,17,28,KA,101273,7-11 ST821 CITYPLACE SQUARE BINONDO,16,77,40,3,,14.604037,120.973229,"667 Lachambre St, Binondo, Manila, 1006 Metro Manila, Philippines"
31-May,17,29,KA,101300,7-11 ST1137 CINTELEY,16,113,59,4,,14.607898,120.975702,"Brgy. 259, Tondo, Manila, Metro Manila, Philippines"
31-May,17,30,KA,101194,7-11 ST45 GAGALANGIN (TONDO),16,173,89,5,,14.628917,120.974081,"Brgy. 185, Tondo, Manila, Metro Manila, Philippines"
31-May,17,31,KA,107055,7-11 ST2255 GAGALANGIN 2,16,151,78,4,,14.626819,120.973326,"2503 Juan Luna St, Tondo, Manila, 1013 Metro Manila, Philippines"
31-May,17,32,KA,101274,7-11 ST782 SEAOIL PRITIL,16,100,52,3,,14.616011,120.970257,"629 Esguerra St, Tondo, Manila, Metro Manila, Philippines"
31-May,17,33,KA,101266,7-11 MORIONES,16,140,72,4,,14.609941,120.967825,"577 Moriones St, Tondo, Manila, Metro Manila, Philippines"
31-May,17,34,KA,101331,7-11 ST1634 MARY JOHNSTON,16,131,68,4,,14.609438,120.96631,"General Macario Leon Sakay Monument, Sta. Maria St, Tondo, Manila, Metro Manila, Philippines"
31-May,17,35,KA,101279,7-11 ST860 ASUNCION,16,85,44,3,,14.603706,120.966236,"384 Zaragoza St, Tondo, Manila, 1012 Metro Manila, Philippines"
31-May,17,36,KA,109717,7-11 ST2634 DELPAN,16,226,117,6,,14.599967,120.96498,"275, San Nicolas, Manila, Metro Manila, Philippines"
31-May,17,37,KA,101198,7-11 ST98 YLAYA,16,227,117,5,,14.607171,120.967151,"Brgy. 3, Tondo, Manila, Metro Manila, Philippines"
31-May,17,38,KA,101228,7-11 ST295 KINGS PLAZA,16,93,48,4,,14.606559,120.970057,"934 Juan Luna St, Tondo, Manila, Metro Manila, Philippines"
31-May,18,1,KA,100767,7-11 CAPITOL DRIVE ST1451,16,89,46,4,,14.663727,121.07665,"Matandang Balara, Quezon City, Metro Manila, Philippines"
31-May,18,2,KA,100610,7-11 ST797 OLD BALARA,16,128,67,4,,14.663858,121.069777,"Diliman Apartelle, Commonwealth Ave, Matandang Balara, Quezon City, Metro Manila, Philippines"
31-May,18,3,KA,100659,7-11 ST1083 NEW ERA,16,186,96,5,,14.661977,121.058868,"UP Ayala Bldg M, Central Ave, Diliman, Quezon City, Metro Manila, Philippines"
31-May,18,4,KA,100862,7-11 ST1981 L-PASEO (UP DILIMAN),16,79,41,3,,14.661977,121.058868,"UP Ayala Bldg M, Central Ave, Diliman, Quezon City, Metro Manila, Philippines"
31-May,18,5,KA,108076,7-11 ST2385 PARAGON PLACE,16,73,38,3,,14.678122,121.083794,"Ever Gotesco, Quezon City, Metro Manila, Philippines"
31-May,18,6,KA,100575,7-11 CITY OIL FAIRVIEW,16,76,40,3,,14.706022,121.073445,"Fairview, Novaliches, Quezon City, Metro Manila, Philippines"
31-May,18,7,KA,100701,7-11 CPI REGALADO,16,72,37,3,,14.706683,121.069538,"Fairview, Novaliches, Quezon City, Metro Manila, Philippines"
31-May,18,8,KA,100702,7-11 ST1184 ATHERTON,16,129,67,4,,14.70892,121.062837,"North Fairview, Novaliches, Quezon City, Metro Manila, Philippines"
31-May,18,9,KA,109494,7-11 ST2507 PESETA,16,133,69,4,,14.709338,121.0568,"Santa Monica, Novaliches, Quezon City, Metro Manila, Philippines"
31-May,18,10,KA,100431,7-11 ZABARTE,16,182,94,5,,14.731648,121.048586,"MAYNILAD, Quirino Hwy, Novaliches, Quezon City, Metro Manila, Philippines"
31-May,18,11,KA,100851,7-11 ST1937 VILLA VERDE,16,79,41,3,,14.722156,121.041719,"Santa Monica, Novaliches, Quezon City, Metro Manila, Philippines"
31-May,18,12,KA,100693,7-11 ST992 RL MALL,16,80,41,3,,14.721623,121.040026,"Novaliches Proper, Novaliches, Quezon City, Metro Manila, Philippines"
31-May,18,13,KA,100852,7-11 ST1933 NOVAVILLE,16,109,57,3,,14.737675,121.032316,"Brgy. 169, Caloocan, Metro Manila, Philippines"
31-May,18,14,KA,108079,7-11 ST2184 LAWANG BATO,16,135,70,4,,14.730125,120.992766,"Lawang Bato, Valenzuela, Metro Manila, Philippines"
31-May,18,15,KA,100734,7-11 KAYBIGA,16,135,70,4,,14.719188,121.007089,"Caybiga, General Luis, Caloocan, Metro Manila, Philippines"
31-May,18,16,KA,100636,7-11 ST902 SITIO GITNA,16,104,54,3,,14.719871,121.015077,"Caybiga, Metro Manila, Philippines"
31-May,18,17,KA,100655,7-11 ST1051 CALIFORNIA VILLAGE,16,89,46,3,,14.705184,121.021823,"San Bartolome, Novaliches, Quezon City, Metro Manila, Philippines"
31-May,18,18,KA,100814,7-11 ST1764 REBISCO,16,100,52,3,,14.719206,121.022895,"Nagkaisang Nayon, Novaliches, Quezon City, Metro Manila, Philippines"
31-May,18,19,KA,108078,7-11 ST1998 CAPRI,16,124,64,4,,14.720333,121.028092,"Nagkaisang Nayon, Novaliches, Quezon City, Metro Manila, Philippines"
31-May,18,20,KA,107314,7-11 ST2308 JORDAN HEIGHTS,16,96,50,3,,14.726449,121.024304,"Caloocan, Metro Manila, Philippines"
31-May,18,21,KA,107313,7-11 ST2065 LLANO ROAD,16,115,60,4,,14.730349,121.01883,"Llano, Caloocan, Metro Manila, Philippines"
31-May,18,22,KA,108845,7-11 ST2199LLANO ELEMENTARY,16,160,83,4,,14.73243,121.012731,"Llano, Caloocan, Metro Manila, Philippines"
31-May,18,23,KA,100426,7-11 NOVALICHES,16,161,83,4,,14.721954,121.038881,"Novaliches Proper, Novaliches, Quezon City, Metro Manila, Philippines"
31-May,18,24,KA,100452,7-11 ST217 NOVA 3,16,115,59,4,,14.719347,121.039733,"Novaliches Proper, Novaliches, Quezon City, Metro Manila, Philippines"
31-May,18,25,KA,100428,7-11 ST160 SAN BARTOLOME,16,153,79,4,,14.701746,121.034828,"315 Pablo Dela Cruz, Novaliches, Quezon City, Metro Manila, Philippines"
31-May,18,26,KA,100678,7-11 ST1186 BAGBAG,16,121,63,4,,14.696568,121.03238,"Rosario Sy Apartments, 645 Quirino Hiway Quirino Hwy, Novaliches, Quezon City, Metro Manila, Philippines"
31-May,18,27,KA,100683,7-11 ST1061 KINGSPOINT,16,130,67,4,,14.693078,121.029738,"Talipapa, Novaliches, Quezon City, Metro Manila, Philippines"
31-May,18,28,KA,100511,7-11 ST125 JP RAMOY,16,225,44,6,,14.685874,121.023995,"Talipapa, Novaliches, Quezon City, Metro Manila, Philippines"
31-May,18,29,KA,100760,7-11 ST1553 CPI SAUYO,6,115,60,4,,14.693849,121.055388,"Sauyo, Novaliches, Quezon City, Metro Manila, Philippines"
31-May,18,30,KA,100842,7-11 ST1920 MAPAYAPA,16,119,62,4,,14.686538,121.064459,"Pasong Tamo, Quezon City, Metro Manila, Philippines"
31-May,18,31,KA,100697,7-11 JETTIE DAHLIA,16,82,42,3,,14.699351,121.060069,"Fairview, Novaliches, Quezon City, Metro Manila, Philippines"
31-May,18,32,KA,109508,7-11 ST2490 THE ROLEX PLACE,16,55,29,2,,14.699675,121.065959,"1 Dahlia Ave, Novaliches, Quezon City, 1118 Metro Manila, Philippines"
31-May,18,33,KA,100685,7-11 ST1140 REGALADO HIVE,16,60,31,2,,14.699618,121.067846,"Fairview, Novaliches, Quezon City, Metro Manila, Philippines"
31-May,19,1,KA,100856,7-11 ST1974 TANONG MARIKINA,16,92,48,3,,14.634074,121.086378,"Tañong, Marikina, 1800 Metro Manila, Philippines"
31-May,19,2,KA,100500,7-11 ST367 RIVERBANKS,16,83,43,4,,14.634074,121.086378,"Tañong, Marikina, 1800 Metro Manila, Philippines"
31-May,19,3,KA,100617,7-11 ST801 RIVERBANKS 2,16,45,23,3,,14.632957,121.082583,"Barangka, Marikina, Metro Manila, Philippines"
31-May,19,4,KA,100667,7-11 ST1097 CALTEX AURORA,16,103,54,4,,14.629083,121.069736,"Marilag, Project 4, Quezon City, Metro Manila, Philippines"
31-May,19,5,KA,100755,7-11 A. SQUARE ANONAS ST1395,16,55,29,3,,14.627964,121.063483,"Quirino 3-A, Project 3, Quezon City, Metro Manila, Philippines"
31-May,19,6,KA,100649,7-11 WORLD CITI,16,82,43,3,,14.62736,121.063421,"Bagumbuhay, Project 4, Quezon City, Metro Manila, Philippines"
31-May,19,7,KA,100474,7-11 ST276 HANSEL,16,75,49,4,,14.623075,121.053164,"70 Aurora Blvd, Quezon City, 1102 Metro Manila, Philippines"
31-May,19,8,KA,100464,7-11 ST250 AURORA,20,60,31,3,,14.62256,121.052027,"E. Rodriguez, Quezon City, Metro Manila, Philippines"
31-May,19,9,KA,100502,7-11 ST383 MAYA,16,131,68,4,,14.62408,121.049272,"678 Epifanio de los Santos Ave, Quezon City, 1102 Metro Manila, Philippines"
31-May,19,10,KA,100854,7-11 ST1861 NEPA Q MART,16,142,73,4,,14.62733,121.047725,"Ermin Garcia Bus Stop, Northbound, Epifanio de los Santos Ave, Lungsod Quezon, Kalakhang Maynila, Philippines"
31-May,19,11,KA,100493,7-11 ST323 GMA 7,16,107,55,4,,14.633245,121.043341,"131 South, Diliman, Quezon City, 1103 Metro Manila, Philippines"
31-May,19,12,KA,100728,7-11 TUNE HOTEL QC,16,75,39,3,,14.633426,121.04055,"Sacred Heart, Diliman, Quezon City, Metro Manila, Philippines"
31-May,19,13,KA,100494,7-11 ST330 IMPERIAL,16,103,54,3,,14.635409,121.035657,"278 Tomas Morato Ave, Diliman, Quezon City, Metro Manila, Philippines"
31-May,19,14,KA,100595,7-11 EL JARDIN DE PRESIDENTE,16,37,20,2,,14.637847,121.038611,"Bohol Mansion, #43 Eugenio Lopez Dr, Diliman, Quezon City, Metro Manila, Philippines"
31-May,19,15,KA,100444,7-11 QUEZON AVENUE,16,72,37,3,,14.643373,121.037684,"South Triangle, Diliman, Quezon City, Metro Manila, Philippines"
31-May,19,16,KA,100783,7-11 ST1623 FRANCESCA TOWER,16,53,27,2,,14.637115,121.041699,"South Triangle, Diliman, Quezon City, Metro Manila, Philippines"
31-May,19,17,KA,100496,7-11 R. MAGSAYSAY,16,147,76,4,,14.627291,121.047366,"Ermin Garcia Bus Stop, Quezon City, Metro Manila, Philippines"
31-May,19,18,KA,100425,7-11 ST165 SUPER LINES,16,268,139,7,,14.627291,121.047366,"Ermin Garcia Bus Stop, Quezon City, Metro Manila, Philippines"
31-May,19,19,KA,100457,7-11 ST268 ARAYAT 2,16,87,45,3,,14.619562,121.050531,"Cubao, Quezon City, Metro Manila, Philippines"
31-May,19,20,KA,108653,7-11 ST2358 CORP PINATUBO,16,74,39,3,,14.620885,121.049803,"Cubao, Quezon City, Metro Manila, Philippines"
31-May,19,21,KA,107310,7-11 ST2296 LRT CUBAO,16,45,23,2,,14.622416,121.052656,"Araneta Center - Cubao Station, Cubao, Quezon City, Metro Manila, Philippines"
31-May,19,22,KA,100605,7-11 ST763 MANHATTAN PARKWAY,16,44,23,3,,14.622545,121.055169,"15 General Roxas Ave, Cubao, Quezon City, 1109 Metro Manila, Philippines"
31-May,19,23,KA,100732,7-11 ST1257 MANHATTAN PARKVIEW,16,59,44,2,,14.623196,121.05469,"Manhattan Tower 2, 20 General Malvar Ave, Cubao, Quezon City, 1109 Metro Manila, Philippines"
31-May,19,24,KA,100604,7-11 ST762 SUPER CENTER,23,193,100,5,,14.621148,121.055588,"20 Times Square Ave, Cubao, Quezon City, 1100 Metro Manila, Philippines"
31-May,19,25,KA,112438,7-11 ST2625 MANHATTAN HEIGHTS,16,128,66,4,,14.620999,121.056854,"Socorro, Cubao, Quezon City, Metro Manila, Philippines"
31-May,19,26,KA,103674,7-11 ST2007 GATEWAY MALL,16,49,26,2,,14.621595,121.052126,"Socorro, Cubao, Quezon City, Metro Manila, Philippines"
31-May,19,27,KA,100711,7-11 ST1258 FARMERS PLAZA 2,16,47,36,3,,14.620101,121.051284,"Farmers Plaza, 20 GEN. Araneta Ave. Araneta Center, Cubao, Quezon City, 1109 Metro Manila, Philippines"
31-May,19,28,KA,100523,7-11 ST460 TELLUS ARANETA CENTER,24,67,52,3,,14.618877,121.053536,"201 General Mc Arthur Ave, Cubao, Quezon City, 1109 Metro Manila, Philippines"
31-May,19,29,KA,108294,7-11 ST2301 CYBER PARK TOWER,24,69,36,3,,14.618968,121.054993,"Socorro, Cubao, Quezon City, Metro Manila, Philippines"
31-May,19,30,KA,106329,7-11 ST2096 UNION SQUARE 15TH AVE.,16,113,59,4,,14.622467,121.058288,"San Roque, Cubao, Quezon City, Metro Manila, Philippines"
31-May,20,1,KA,100491,7-11 ST307 MADRIGAL,16,81,63,3,,14.557993,121.019741,"U2301 PBCom Tower 6795, Makati, Metro Manila, Philippines"
31-May,20,2,KA,103913,7-11 ST2080 PALANAN,24,69,36,2,,14.558622,121.001552,"Palanan, Makati, Metro Manila, Philippines"
31-May,20,3,KA,100643,7-11 ST940 RADA,16,53,41,3,,14.55607,121.018604,"Palanan, Makati, Metro Manila, Philippines"
31-May,20,4,KA,100516,7-11 STERLING CENTER,24,70,54,3,,14.557547,121.017166,"102 Esteban, Legazpi Village, Makati, Kalakhang Maynila, Philippines"
31-May,20,5,KA,100527,7-11 ONE SOLARIS RETAIL 2,24,91,70,4,,14.557806,121.017438,"7650 Dela Rosa Street, Legazpi Village, Makati, 1200 Kalakhang Maynila, Philippines"
31-May,20,6,KA,108296,7-11 ST2414 I CARE MAKATI,24,40,21,2,,14.558135,121.016158,"Sotto, Legazpi Village, Makati, Kalakhang Maynila, Philippines"
31-May,20,12,KA,100827,7-11 ST1649 TUNE HOTEL - MAKATI,16,89,46,3,,14.559713,121.013227,"99 Urban Ave, Makati, 1230 Metro Manila, Philippines"
31-May,20,13,KA,100484,7-11 ST300 CONVERGYS,16,41,32,2,,14.559431,121.01613,"103 Salcedo, Legazpi Village, Makati, Kalakhang Maynila, Philippines"
31-May,20,14,KA,108472,7-11 ST2263 ONE CENTRAL,24,51,26,2,,14.561114,121.017223,"One Central, Makati, Metro Manila, Philippines"
31-May,20,15,KA,100657,7-11 ST1015 ALPHA LAND MAKATI MALL,16,86,67,4,,14.562424,121.015761,"6819 Ayala Ave, Makati, 1226 Metro Manila, Philippines"
31-May,20,18,KA,107165,7-11 ST2309 VICTORY HOTEL,24,84,44,3,,14.553257,121.012823,"7934 M. Ocampo, 7934 M.Ocampo, Makati, Metro Manila, Philippines"
31-May,20,19,KA,100833,7-11 CHINO ROCES ST1420,16,59,46,3,,14.551925,121.013745,"2314 Chino Roces Ave, Makati, 1230 Metro Manila, Philippines"
31-May,20,20,KA,100712,7-11 ST1279 BEACON,24,68,53,3,,14.551646,121.013829,"The Beacon - Roces Tower, Legazpi Village, Makati, Metro Manila, Philippines"
31-May,20,21,KA,100506,7-11 ST2207 DON BOSCO,24,71,55,3,,14.548291,121.014309,"The Beacon - Roces Tower, Legazpi Village, Makati, Metro Manila, Philippines"
31-May,20,22,KA,100855,7-11 ST1780 WILCON IT HUB,24,134,70,4,,14.542981,121.017692,"San Lorenzo, Makati, Metro Manila, Philippines"
31-May,20,23,KA,109563,7-11 ST2247 SAN LORENZO PLACE,16,111,58,3,,14.542101,121.018393,"San Lorenzo, Makati, Metro Manila, Philippines"
31-May,20,24,KA,101206,7-11 EVANGELISTA,16,127,98,4,,14.550935,121.010206,"Pio del Pilar, Makati, Metro Manila, Philippines"
31-May,20,25,KA,100705,7-11 ST1340 EVANGELISTA 2,24,78,60,3,,14.548491,121.010884,"Pio del Pilar, Makati, Metro Manila, Philippines"
31-May,20,26,KA,108073,7-11 ST2149 BANGKAL 2,24,70,54,3,,14.542584,121.013112,"Bangkal, Makati, Metro Manila, Philippines"
31-May,20,27,KA,100664,7-11 ST1100 PTT OSMENIA,24,69,36,3,,14.546091,121.013483,"Bangkal, Makati, Metro Manila, Philippines"
31-May,20,28,KA,100469,7-11 ST243 MERVILLE,16,356,184,8,,14.508587,121.03337,"Pasay, Metro Manila, Philippines"
31-May,20,29,KA,107167,7-11 ST2292 EDISON AVE.,16,203,105,6,,14.49743,121.03303,"Sun Valley, Parañaque, 1709 Metro Manila, Philippines"
31-May,20,30,KA,112440,7-11 ST2650 AMAIA BICUTAN,16,343,177,7,,14.493094,121.041834,"Sun Valley, Parañaque, 1709 Metro Manila, Philippines"
31-May,20,31,KA,100568,7-11 BETTERLIVING 3,16,57,30,2,,14.485156,121.039687,"17 Australia, Parañaque, 1709 Metro Manila, Philippines"
31-May,20,32,KA,100582,7-11 BETTERLIVING 4,16,68,35,3,,14.483488,121.033037,"Don Bosco, Parañaque, Metro Manila, Philippines"
31-May,21,3,MD,102021,MD VICTORY LINER PASAY,16,760,760,15,,14.539159,121.006755,"Pasay, 651 Epifanio de los Santos Ave, Pasay, Metro Manila, Philippines"
31-May,21,4,KA,109791,SH MALIBAY,31,51,51,2,,14.538418,121.006175,"Pasay, Malibay, Pasay, Metro Manila, Philippines"
31-May,21,6,KA,107042,SMFA PARK AVE. PASAY,31,33,33,1,,14.540033,120.998061,"74, Pasay, Metro Manila, Philippines"
31-May,21,7,KA,103721,SH EDSA HERITAGE,31,25,25,1,,14.53756,120.993651,"Barangay 76, Pasay, Metro Manila, Philippines"
31-May,21,8,KA,107742,SMFA FB HARRISON CUNETA,31,39,39,2,,14.536387,120.99605,"75, Pasay, Metro Manila, Philippines"
31-May,21,9,MD,103900,MD MAHAL KITA DRIVE INN TAFT,31,340,340,10,,14.53664,120.999827,"Saulog Transit Bus Terminal, Pasay, Metro Manila, Philippines"
31-May,21,10,MD,103905,MD LRT BACLARAN STATION,31,958,958,19,,14.534038,120.99807,"Baclaran, Taft Ave Ext, Pasay, Metro Manila, Philippines"
31-May,21,11,KA,107134,7-11 ST2254 TAMBO 2,31,80,39,3,,14.517358,120.996441,"Tambo, Parañaque, Metro Manila, Philippines"
31-May,21,13,KA,102045,BAYVIEW PETRON SERVICE CENTER,15,14,13,2,,14.523446,120.994025,"Tambo, Parañaque, Metro Manila, Philippines"
31-May,21,17,MD,112758,MD TRO-SPE VICTORY FOOD MARKET BACLARAN,27,286,286,8,,14.532248,120.99497,"Baclaran, Parañaque, Metro Manila, Philippines"
31-May,21,18,KA,102467,PETROLEUM DISTRIBUTORS & SVCS CORP,31,44,44,2,,14.517381,121.000357,"Pasay, Metro Manila, Philippines"
31-May,21,19,MD,100097,MD OLD DOMESTIC,31,1776,1776,45,,14.524834,121.000818,"NAIA Terminal 4, Pasay, Metro Manila, Philippines"
31-May,21,20,MD,102008,MD AIRPORT TERMINAL 2,31,944,944,28,,14.509109,121.011963,"3 Arrivals Rd, Parañaque, Metro Manila, Philippines"
31-May,21,21,MD,112400,MD ATIN ITO NAIA 1,31,239,232,6,,14.505251,121.005316,"Terminal 1 Departures Area, Parañaque, Metro Manila, Philippines"
31-May,21,24,KA,102532,MAGALLANES MGMT2,30,177,177,3,,14.53144,121.02132,"Magallanes, Makati, Metro Manila, Philippines"
31-May,21,25,KA,101680,PETRON CITY FILL,31,21,21,2,,14.528947,121.026254,"Fort Bonifacio, Taguig, Metro Manila, Philippines"
31-May,21,26,ZAPP,ZP00043,ZAPP  OBJEE,31,93,81,3,,14.526455,121.02656,"Fort Bonifacio, Taguig, Metro Manila, Philippines"
31-May,21,28,KA,112509,LAWSON NEWPORT 150,27,110,50,3,,14.523621,121.01252,"Newport Carabao Statue, Pasay, Metro Manila, Philippines"
31-May,21,29,KA,101247,7-11 TAMBO COASTAL,14,83,43,4,,14.512835,120.992265,"8344 E3, Parañaque, Metro Manila, Philippines"
31-May,21,30,KA,109695,7-11 ST2565 CITY OF DREAMS 2,16,137,71,5,,14.522848,120.992401,"Tambo, Parañaque, Metro Manila, Philippines"
31-May,21,31,KA,108436,7-11 ST2400 CITY OF DREAMS,16,120,62,5,,14.522848,120.992401,"Tambo, Parañaque, Metro Manila, Philippines"
31-May,21,32,KA,101215,7-11 ST185 GLOBAL,16,86,44,3,,14.517098,120.994075,"Tambo, Parañaque, Metro Manila, Philippines"
31-May,21,33,MD,402215,"MD SHOP, KFC MD NAIA 3",16,242,242,8,,14.52184,121.013009,"Pasay, Metro Manila, Philippines"
31-May,21,37,MD,100096,MD AMB MULTINATIONAL,31,530,530,12,,14.500059,120.997305,"Santo Nino, Metro Manila, Philippines"
31-May,21,38,ZAPP,ZP00416,ZAPP SLT CAAP PASAY,31,38,27,2,,14.514409,121.00506,"Pasay, Metro Manila, Philippines"
31-May,21,39,ZAPP,ZP00034,ZAPP SLT ALDANA,22,35,32,2,,14.480418,120.98092,"Barangay Daniel Fajardo, Las Pinas, Metro Manila, Philippines"
31-May,21,40,MD,107091,MD PUREGOLD PARANAQUE,29,306,266,8,,14.50087,120.997215,"Santo Nino, Metro Manila, Philippines"
30-May,21,14,KA,101203,7-11 ST11 BACLARAN 1,27,138,67,4,,14.527374,120.997017,"Baclaran, Parañaque, Metro Manila, Philippines"
30-May,21,15,KA,101278,7-11 ST850 AIRPORT RD 2,15,133,65,4,,14.52704,120.993992,"727 Roxas Blvd, Baclaran, Parañaque, 1702 Metro Manila, Philippines"
30-May,21,16,KA,106455,7-11 ST1946 AIRPORT 3,15,90,44,3,,14.527445,120.995053,"Baclaran, Parañaque, Metro Manila, Philippines"
30-May,21,22,KA,101233,7-11 ST372 PASCOR DRIVE,15,207,101,5,,14.507248,121.000679,"Pascor Dr, Parañaque, Metro Manila, Philippines"
30-May,21,23,KA,101240,7-11 ST418 MULTINATIONAL,15,115,56,5,,14.49988,120.997105,"Santo Nino, Metro Manila, Philippines"
30-May,21,34,KA,112564,7-11 T3 ARRIVAL,15,222,108,6,,14.52184,121.013009,"Pasay, Metro Manila, Philippines"
30-May,21,35,KA,101262,7-11 NAIA 3,15,133,64,4,,14.52184,121.013009,"Pasay, Metro Manila, Philippines"
30-May,21,41,KA,112911,LAWSON OKADA,15,488,142,7,,14.512709,120.97903,"Don Galo, Parañaque, Metro Manila, Philippines"
11-May,21,5,MD,107176,MD MRT TAFT AVE.,9,615,199,10,,14.537604,121.001358,"Pasay, Sgt. Mariano, Pasay, Metro Manila, Philippines"
7-May,21,27,KA,109684,LAWSON BELMONT,10,108,11,3,,14.520969,121.016303,"Pasay, Metro Manila, Philippines"
31-May,22,1,KA,107155,LAWSON - MAGSAYSAY,3,43,11,2,,14.60286,121.092315,"Manggahan, Pasig, Metro Manila, Philippines"
31-May,22,2,MD,102426,MD MAGSAYSAY,8,458,458,11,,14.602999,121.092685,"Manggahan, Pasig, Metro Manila, Philippines"
31-May,22,3,MD,108697,MD SUPER 8 TAYTAY RIZAL,31,213,213,8,,14.557852,121.134349,"Taytay, Rizal, Philippines"
31-May,22,4,MD,101475,MD PARCO ANGONO,31,153,148,5,,14.52308,121.153416,"Angono, Rizal, Philippines"
31-May,22,5,MD,101642,MD PANTOK,30,183,183,6,,14.493983,121.179635,"Binangonan, Rizal, Philippines"
31-May,22,6,ZAPP,ZP00513,Zapp Binangonan Ferry Terminal Rizal,31,109,109,4,,14.462033,121.191547,"Ferry Terminal, Sta. Ursula, Libid, Binangonan, 1940 Lalawigan ng Rizal, Philippines"
31-May,22,7,MD,102524,MD BINANGONAN 2,31,304,304,8,,14.464255,121.192843,"Binangonan, Rizal, Philippines"
31-May,22,8,KA,108521,SMFA MORONG,31,16,16,2,,14.51561,121.238874,"Morong, Rizal, Philippines"
